[
  {
    "id": 84201,
    "lat": 57.503288,
    "lon": 22.352125,
    "brand_name": "Viada",
    "brand_id": 190,
    "name": "Dundaga",
    "city": "Dundaga",
    "address": "Talsu iela 21",
    "distance": 81.22154815929325
  },
  {
    "id": 64277,
    "lat": 57.949551,
    "lon": 22.119892,
    "brand_name": "Alexela",
    "brand_id": 214,
    "name": "Mõntu tankla",
    "city": "Mõntu",
    "address": "Tankla",
    "distance": 95.16846975816132
  },
  {
    "id": 64330,
    "lat": 57.497444,
    "lon": 22.821344,
    "brand_name": "Astarte",
    "brand_id": 215,
    "name": "Roja",
    "city": "Roja",
    "address": "Selgas iela 70",
    "distance": 83.11590452950749
  },
  {
    "id": 64236,
    "lat": 58.246925,
    "lon": 22.460215,
    "brand_name": "Alexela",
    "brand_id": 214,
    "name": "Kuressaare tankla",
    "city": "Kuressaare",
    "address": "Sõrve tee 2",
    "distance": 79.07441675281657
  },
  {
    "id": 61022,
    "lat": 58.262039,
    "lon": 22.505489,
    "brand_name": "NESTE",
    "brand_id": 188,
    "name": "Kuressaare",
    "city": "Kuressaare",
    "address": "Tallinna maantee 63 a",
    "distance": 76.50989985905663
  },
  {
    "id": 61733,
    "lat": 58.264694,
    "lon": 22.51317,
    "brand_name": "Olerex",
    "brand_id": 198,
    "name": "Kuressaare tankla",
    "city": "Kuressaare",
    "address": "Tallinna mnt 84",
    "distance": 76.06959593566589
  },
  {
    "id": 61214,
    "lat": 57.743557,
    "lon": 24.360561,
    "brand_name": "Viada",
    "brand_id": 190,
    "name": "Salacgriva",
    "city": "Salacgriva",
    "address": "Vidzemes iela 29",
    "distance": 82.10854181263282
  },
  {
    "id": 84539,
    "lat": 57.514099,
    "lon": 24.7239,
    "brand_name": "NESTE",
    "brand_id": 196,
    "name": "Limbaži",
    "city": "Limbaži",
    "address": "Stacijas iela 8",
    "distance": 99.38918632122186
  },
  {
    "id": 61137,
    "lat": 57.757042,
    "lon": 24.362082,
    "brand_name": "Circle K",
    "brand_id": 189,
    "name": "Salacgrīva",
    "city": "Salacgrīva",
    "address": "Viļņu iela 4",
    "distance": 80.73375867540332
  },
  {
    "id": 61120,
    "lat": 57.512512,
    "lon": 24.728016,
    "brand_name": "Circle K",
    "brand_id": 189,
    "name": "Limbaži",
    "city": "Limbaži",
    "address": "Cēsu iela 30",
    "distance": 62.925562287494266
  },
  {
    "id": 64467,
    "lat": 57.510849,
    "lon": 24.729662,
    "brand_name": "LPG",
    "brand_id": 216,
    "name": 27,
    "city": "Limbaži",
    "address": "Smilšu iela 8",
    "distance": 62.98193684068703
  },
  {
    "id": 61181,
    "lat": 57.512367,
    "lon": 24.729504,
    "brand_name": "Viada",
    "brand_id": 190,
    "name": "Limbazi",
    "city": "Limbazi",
    "address": "Cesu iela 32",
    "distance": 62.87229627332229
  },
  {
    "id": 64325,
    "lat": 57.52129,
    "lon": 24.742517,
    "brand_name": "Astarte",
    "brand_id": 215,
    "name": "Limbaži",
    "city": "Limbaži",
    "address": "Meliorācijas iela 23",
    "distance": 98.74987443058849
  },
  {
    "id": 61619,
    "lat": 57.849548,
    "lon": 24.353439,
    "brand_name": "NESTE",
    "brand_id": 196,
    "name": "Ainazi",
    "city": "Ainazi",
    "address": "Valdemara iela 82",
    "distance": 72.0250299710312
  },
  {
    "id": 64567,
    "lat": 57.513126,
    "lon": 25.340364,
    "brand_name": "LN",
    "brand_id": 217,
    "name": "Kocēni",
    "city": "Kocēni",
    "address": "Kocēni",
    "distance": 58.19018006947052
  },
  {
    "id": 64566,
    "lat": 57.873913,
    "lon": 24.380117,
    "brand_name": "LN",
    "brand_id": 217,
    "name": "Ainaži",
    "city": "Ainaži",
    "address": "Ainažu robežkontroles punkts",
    "distance": 68.89061335200748
  },
  {
    "id": 64939,
    "lat": 57.875729,
    "lon": 24.383039,
    "brand_name": "Terminal",
    "brand_id": 199,
    "name": "Ikla",
    "city": "Ikla",
    "address": "Ikla piiripunkt",
    "distance": 68.62811093907281
  },
  {
    "id": 64476,
    "lat": 57.529575,
    "lon": 25.384747,
    "brand_name": "LPG",
    "brand_id": 216,
    "name": 37,
    "city": "Valmiera",
    "address": "\"Ķeizari\"",
    "distance": 55.061918755762306
  },
  {
    "id": 61107,
    "lat": 57.530594,
    "lon": 25.392429,
    "brand_name": "Circle K",
    "brand_id": 189,
    "name": "Valmiera 2",
    "city": "Valmiera",
    "address": "Ausekļa iela 26",
    "distance": 54.674646018623015
  },
  {
    "id": 61610,
    "lat": 57.531773,
    "lon": 25.393238,
    "brand_name": "NESTE",
    "brand_id": 196,
    "name": "Valmiera I",
    "city": "Valmiera",
    "address": "Rigas iela 76",
    "distance": 54.54415045760012
  },
  {
    "id": 64191,
    "lat": 57.547359,
    "lon": 25.394686,
    "brand_name": "VIRŠI",
    "brand_id": 213,
    "name": "Valmiera",
    "city": "Valmiera",
    "address": "Patversmes iela 12",
    "distance": 53.19214092131924
  },
  {
    "id": 61611,
    "lat": 57.531708,
    "lon": 25.428843,
    "brand_name": "NESTE",
    "brand_id": 196,
    "name": "Valmiera II",
    "city": "Valmiera",
    "address": "Maza Stacijas iela 14",
    "distance": 53.17640784424687
  },
  {
    "id": 61122,
    "lat": 57.527103,
    "lon": 25.435152,
    "brand_name": "Circle K",
    "brand_id": 189,
    "name": "Valmiera 1",
    "city": "Valmiera",
    "address": "Stacijas iela 29",
    "distance": 53.33658018902074
  },
  {
    "id": 61209,
    "lat": 57.508282,
    "lon": 25.460495,
    "brand_name": "Viada",
    "brand_id": 190,
    "name": "Valmiera 2",
    "city": "Kauguri",
    "address": "Brīvnieki",
    "distance": 54.078896606300376
  },
  {
    "id": 64477,
    "lat": 57.517731,
    "lon": 25.454931,
    "brand_name": "LPG",
    "brand_id": 216,
    "name": 38,
    "city": "Valmiera",
    "address": "Cempu iela 12",
    "distance": 53.43354223029456
  },
  {
    "id": 61612,
    "lat": 57.555069,
    "lon": 25.44286,
    "brand_name": "NESTE",
    "brand_id": 196,
    "name": "Valmiera III",
    "city": "Valmiera",
    "address": "Valdeko, Valmiera parish",
    "distance": 73.55468929408684
  },
  {
    "id": 64571,
    "lat": 57.62558,
    "lon": 25.67137,
    "brand_name": "LN",
    "brand_id": 217,
    "name": "Latvijas Nafta Streči",
    "city": "Strenči",
    "address": "Rīgas iela 35",
    "distance": 84.50622240199101
  },
  {
    "id": 64184,
    "lat": 57.427986,
    "lon": 25.898586,
    "brand_name": "VIRŠI",
    "brand_id": 213,
    "name": "Smiltene",
    "city": "Smiltene",
    "address": "Stacijas iela 2",
    "distance": 83.93898995504671
  },
  {
    "id": 61116,
    "lat": 57.420727,
    "lon": 25.916199,
    "brand_name": "Circle K",
    "brand_id": 189,
    "name": "Smiltene",
    "city": "Smiltene",
    "address": "Dārza iela 36",
    "distance": 83.64113774777128
  },
  {
    "id": 61170,
    "lat": 57.75906,
    "lon": 25.987297,
    "brand_name": "VIRŠI",
    "brand_id": 213,
    "name": "Valka Lugaži",
    "city": "Valka",
    "address": "Rigas iela 80",
    "distance": 90.91785737993389
  },
  {
    "id": 64475,
    "lat": 57.767601,
    "lon": 26.011049,
    "brand_name": "LPG",
    "brand_id": 216,
    "name": 36,
    "city": "Valka",
    "address": "Vienības gatve 2",
    "distance": 89.36142959664645
  },
  {
    "id": 61061,
    "lat": 57.777847,
    "lon": 26.027042,
    "brand_name": "NESTE",
    "brand_id": 188,
    "name": "Valga",
    "city": "Valga",
    "address": "Raja 5",
    "distance": 88.23307154732763
  },
  {
    "id": 64246,
    "lat": 57.774799,
    "lon": 26.042566,
    "brand_name": "Alexela",
    "brand_id": 214,
    "name": "Valga tankla",
    "city": "Valga vald",
    "address": "Vabaduse tn 41",
    "distance": 87.38234101911789
  },
  {
    "id": 61173,
    "lat": 57.787338,
    "lon": 26.017914,
    "brand_name": "VIRŠI",
    "brand_id": 213,
    "name": "Valka",
    "city": "Valka",
    "address": "Rujienas iela 7",
    "distance": 90.66096824598216
  },
  {
    "id": 64574,
    "lat": 57.790619,
    "lon": 26.03051,
    "brand_name": "LN",
    "brand_id": 217,
    "name": "Latvijas Nafta Valka",
    "city": "Valka",
    "address": "Rūjienas iela 31",
    "distance": 67.78368044309997
  },
  {
    "id": 64936,
    "lat": 57.792332,
    "lon": 26.03882,
    "brand_name": "Terminal",
    "brand_id": 199,
    "name": "Valga",
    "city": "Valga",
    "address": "Transpordi 1",
    "distance": 67.60809528457858
  },
  {
    "id": 60966,
    "lat": 57.788574,
    "lon": 26.048313,
    "brand_name": "Circle K",
    "brand_id": 186,
    "name": "Valga",
    "city": "Valga",
    "address": "Pikk tn 1",
    "distance": 68.0467025227347
  },
  {
    "id": 61790,
    "lat": 57.79034,
    "lon": 26.04954,
    "brand_name": "Olerex",
    "brand_id": 198,
    "name": "Valga tankla",
    "city": "Valga",
    "address": "Transpordi 2",
    "distance": 67.85353206138001
  },
  {
    "id": 61788,
    "lat": 57.990765,
    "lon": 25.939959,
    "brand_name": "Olerex",
    "brand_id": 198,
    "name": "Tõrva tankla",
    "city": "Tõrva",
    "address": "Valga 72",
    "distance": 77.00318567571027
  },
  {
    "id": 61716,
    "lat": 57.830116,
    "lon": 26.533026,
    "brand_name": "Olerex",
    "brand_id": 198,
    "name": "Antsla tankla",
    "city": "Antsla",
    "address": "F. R. Kreutzwaldi 11",
    "distance": 85.09359674976409
  },
  {
    "id": 64249,
    "lat": 58.105217,
    "lon": 25.546309,
    "brand_name": "Alexela",
    "brand_id": 214,
    "name": "Karksi-Nuia tankla",
    "city": "Mulgi vald",
    "address": "Pärnu mnt 2",
    "distance": 64.71323693197905
  },
  {
    "id": 64251,
    "lat": 58.122963,
    "lon": 25.352402,
    "brand_name": "Alexela",
    "brand_id": 214,
    "name": "Abja-Paluoja tankla",
    "city": "Mulgi vald",
    "address": "Raudtee tn 2",
    "distance": 48.82457397111052
  },
  {
    "id": 61014,
    "lat": 58.083698,
    "lon": 26.045864,
    "brand_name": "Premium7",
    "brand_id": 187,
    "name": "Pikasilla",
    "city": "Pikasilla",
    "address": "Pikasilla",
    "distance": 92.08327091138712
  },
  {
    "id": 64575,
    "lat": 57.431915,
    "lon": 27.01849,
    "brand_name": "LN",
    "brand_id": 217,
    "name": "Aizupītes",
    "city": "Aizupītes",
    "address": "Aizupītes 22, Alsviķu pag.",
    "distance": 78.20678666130259
  },
  {
    "id": 64145,
    "lat": 57.431164,
    "lon": 27.022785,
    "brand_name": "VIRŠI",
    "brand_id": 213,
    "name": "Alūksne",
    "city": "Alūksne",
    "address": "Rīgas iela 11",
    "distance": 78.07253268681664
  },
  {
    "id": 61204,
    "lat": 57.413792,
    "lon": 27.042067,
    "brand_name": "Viada",
    "brand_id": 190,
    "name": "Aluksne",
    "city": "Aluksne",
    "address": "Gulbenes iela 1 C",
    "distance": 78.54948630166024
  },
  {
    "id": 61614,
    "lat": 57.42321,
    "lon": 27.053511,
    "brand_name": "NESTE",
    "brand_id": 196,
    "name": "Aluksne",
    "city": "Aluksne",
    "address": "Pils iela 9 c",
    "distance": 77.33019812878847
  },
  {
    "id": 61755,
    "lat": 57.727962,
    "lon": 26.914297,
    "brand_name": "Olerex",
    "brand_id": 198,
    "name": "Rõuge automaattankla",
    "city": "Rõuge",
    "address": "Nursi mnt 1",
    "distance": 98.29418414389707
  },
  {
    "id": 64259,
    "lat": 57.820854,
    "lon": 27.020964,
    "brand_name": "Alexela",
    "brand_id": 214,
    "name": "Võru tankla",
    "city": "Võru",
    "address": "Kose tee 6",
    "distance": 86.33843633297279
  },
  {
    "id": 61795,
    "lat": 57.858356,
    "lon": 26.975494,
    "brand_name": "Olerex",
    "brand_id": 198,
    "name": "Võru Tallinna mnt tankla",
    "city": "Võru",
    "address": "Tallinna mnt 38",
    "distance": 85.11857389000525
  },
  {
    "id": 60972,
    "lat": 57.842209,
    "lon": 27.006777,
    "brand_name": "Circle K",
    "brand_id": 186,
    "name": "Võru Kesklinn",
    "city": "Võru",
    "address": "Jüri tn 45",
    "distance": 85.139020558424
  },
  {
    "id": 61070,
    "lat": 57.8395,
    "lon": 27.0131,
    "brand_name": "NESTE",
    "brand_id": 188,
    "name": "Vöru",
    "city": "Vöru",
    "address": "Jüri tn. 83 a",
    "distance": 85.10691264027061
  },
  {
    "id": 60969,
    "lat": 57.832661,
    "lon": 27.034317,
    "brand_name": "Circle K",
    "brand_id": 186,
    "name": "Võru Pikk Tn",
    "city": "Võru",
    "address": "Pikk tn 21a",
    "distance": 84.83105260039102
  },
  {
    "id": 64942,
    "lat": 57.844147,
    "lon": 27.018486,
    "brand_name": "Terminal",
    "brand_id": 199,
    "name": "Võru",
    "city": "Võru",
    "address": "Räpina mnt 11",
    "distance": 84.51067512994429
  },
  {
    "id": 61794,
    "lat": 57.844009,
    "lon": 27.020611,
    "brand_name": "Olerex",
    "brand_id": 198,
    "name": "Võru Räpina mnt tankla",
    "city": "Võru",
    "address": "Räpina mnt 18",
    "distance": 84.43691116116037
  },
  {
    "id": 61071,
    "lat": 57.839882,
    "lon": 27.02907,
    "brand_name": "NESTE",
    "brand_id": 188,
    "name": "Voru",
    "city": "Voru",
    "address": "Pikk 6",
    "distance": 84.43970617382624
  },
  {
    "id": 64247,
    "lat": 58.062859,
    "lon": 26.498053,
    "brand_name": "Alexela",
    "brand_id": 214,
    "name": "Otepää tankla",
    "city": "Otepää vald",
    "address": "Tartu mnt 24",
    "distance": 95.58392276103771
  },
  {
    "id": 64941,
    "lat": 58.142262,
    "lon": 26.248489,
    "brand_name": "Terminal",
    "brand_id": 199,
    "name": "Rõngu",
    "city": "Rõngu",
    "address": "Võru maantee 1",
    "distance": 78.59504663588338
  },
  {
    "id": 61791,
    "lat": 57.731709,
    "lon": 27.27356,
    "brand_name": "Olerex",
    "brand_id": 198,
    "name": "Vastseliina tankla",
    "city": "Vastseliina",
    "address": "Tootmise 2",
    "distance": 85.71699477713983
  },
  {
    "id": 61016,
    "lat": 58.0667,
    "lon": 26.731001,
    "brand_name": "Terminal",
    "brand_id": 199,
    "name": "Saverna automaattankla",
    "city": "Saverna",
    "address": "Saverna küla",
    "distance": 83.01678539340703
  },
  {
    "id": 60983,
    "lat": 58.051895,
    "lon": 27.041803,
    "brand_name": "Circle K",
    "brand_id": 186,
    "name": "Põlva",
    "city": "Põlva",
    "address": "Kesk tn 43",
    "distance": 68.16031291840412
  },
  {
    "id": 61746,
    "lat": 58.060024,
    "lon": 27.048042,
    "brand_name": "Olerex",
    "brand_id": 198,
    "name": "Põlva tankla",
    "city": "Põlva",
    "address": "Tartu mnt 1b",
    "distance": 67.34320089685554
  },
  {
    "id": 64231,
    "lat": 58.066952,
    "lon": 27.0755,
    "brand_name": "Alexela",
    "brand_id": 214,
    "name": "Põlva tankla",
    "city": "Põlva vald",
    "address": "Jaama tn 16",
    "distance": 65.57662877451284
  },
  {
    "id": 61813,
    "lat": 58.070911,
    "lon": 27.083261,
    "brand_name": "Terminal",
    "brand_id": 199,
    "name": "Põlva",
    "city": "Põlva",
    "address": "Jaama 71B",
    "distance": 64.95076723630217
  },
  {
    "id": 64937,
    "lat": 57.957779,
    "lon": 27.628899,
    "brand_name": "Terminal",
    "brand_id": 199,
    "name": "Värska",
    "city": "Värska",
    "address": "Allika 15",
    "distance": 53.77104296705535
  },
  {
    "id": 61719,
    "lat": 58.221157,
    "lon": 26.405577,
    "brand_name": "Olerex",
    "brand_id": 198,
    "name": "Elva tankla",
    "city": "Elva",
    "address": "Valga mnt 3",
    "distance": 95.23095852599403
  },
  {
    "id": 61796,
    "lat": 57.953175,
    "lon": 27.640499,
    "brand_name": "Olerex",
    "brand_id": 198,
    "name": "Värska tankla",
    "city": "Värska",
    "address": "Pikk tn 36",
    "distance": 53.97096305618091
  },
  {
    "id": 64245,
    "lat": 58.238091,
    "lon": 26.418621,
    "brand_name": "Alexela",
    "brand_id": 214,
    "name": "Elva tankla",
    "city": "Elva vald",
    "address": "Kulbilohu tn 3",
    "distance": 94.08601644192812
  },
  {
    "id": 61012,
    "lat": 58.240002,
    "lon": 26.6908,
    "brand_name": "Premium7",
    "brand_id": 187,
    "name": "Kambja tankla",
    "city": "Kambja",
    "address": "Võru 2E",
    "distance": 78.49439514587104
  },
  {
    "id": 61713,
    "lat": 58.206184,
    "lon": 27.074385,
    "brand_name": "Olerex",
    "brand_id": 198,
    "name": "Ahja tankla",
    "city": "Ahja",
    "address": "Tartu mnt 17",
    "distance": 93.9938695606429
  },
  {
    "id": 61760,
    "lat": 58.210876,
    "lon": 25.928633,
    "brand_name": "Olerex",
    "brand_id": 198,
    "name": "Soe tankla",
    "city": "Soe",
    "address": "Soe küla",
    "distance": 94.17606494116089
  },
  {
    "id": 61756,
    "lat": 58.101612,
    "lon": 27.458136,
    "brand_name": "Olerex",
    "brand_id": 198,
    "name": "Räpina tankla",
    "city": "Räpina",
    "address": "Vabaduse 2",
    "distance": 94.19242893792959
  },
  {
    "id": 64197,
    "lat": 58.281898,
    "lon": 26.527201,
    "brand_name": "Terminal",
    "brand_id": 199,
    "name": "Nõo",
    "city": "Nõo",
    "address": "Raudtee 2a",
    "distance": 68.74787769179514
  },
  {
    "id": 61736,
    "lat": 58.564232,
    "lon": 22.690071,
    "brand_name": "Olerex",
    "brand_id": 198,
    "name": "Leisi automaattankla",
    "city": "Leisi",
    "address": "Kuressaare mnt 20",
    "distance": 94.6144548275197
  },
  {
    "id": 64275,
    "lat": 58.61763,
    "lon": 22.592245,
    "brand_name": "Alexela",
    "brand_id": 214,
    "name": "Soela sadamatankla (Harbour station)",
    "city": "Saaremaa vald",
    "address": "Sadama",
    "distance": 90.07309743345272
  },
  {
    "id": 64262,
    "lat": 58.703781,
    "lon": 22.588905,
    "brand_name": "Alexela",
    "brand_id": 214,
    "name": "Emmaste tankla",
    "city": "Hiiumaa vald",
    "address": "Tankla",
    "distance": 80.90616134162765
  },
  {
    "id": 64237,
    "lat": 58.558159,
    "lon": 23.070513,
    "brand_name": "Alexela",
    "brand_id": 214,
    "name": "Orissaare tankla",
    "city": "Saaremaa vald",
    "address": "Kuivastu mnt 3a",
    "distance": 93.69560126294097
  },
  {
    "id": 64269,
    "lat": 58.54147,
    "lon": 23.317213,
    "brand_name": "Alexela",
    "brand_id": 214,
    "name": "Muhu Lõunaranna tankla (Harbour station)",
    "city": "Muhu vald",
    "address": "Lõunaranna sadam",
    "distance": 97.17993994172585
  },
  {
    "id": 64238,
    "lat": 58.605255,
    "lon": 23.23601,
    "brand_name": "Alexela",
    "brand_id": 214,
    "name": "Muhu Liiva tankla",
    "city": "Muhu vald",
    "address": "Liiva tankla",
    "distance": 89.39884228842786
  },
  {
    "id": 64260,
    "lat": 58.140945,
    "lon": 24.018324,
    "brand_name": "Alexela",
    "brand_id": 214,
    "name": "Kihnu sadamatankla (Harbour station)",
    "city": "Lemsi",
    "address": "Tankla",
    "distance": 64.22783475896449
  },
  {
    "id": 64229,
    "lat": 58.587776,
    "lon": 23.527853,
    "brand_name": "Alexela",
    "brand_id": 214,
    "name": "Virtsu tankla",
    "city": "Lääneranna vald",
    "address": "Vanalinna tn 2",
    "distance": 95.24116730319626
  },
  {
    "id": 60946,
    "lat": 58.074745,
    "lon": 24.512646,
    "brand_name": "Circle K",
    "brand_id": 186,
    "name": "Häädemeeste",
    "city": "Häädemeeste",
    "address": "Valge, Arumetsa küla",
    "distance": 68.17563153473597
  },
  {
    "id": 64234,
    "lat": 58.211227,
    "lon": 24.484772,
    "brand_name": "Alexela",
    "brand_id": 214,
    "name": "Võiste tankla",
    "city": "Häädemeeste vald",
    "address": "Käärdi tn 1",
    "distance": 62.91425233382184
  },
  {
    "id": 61738,
    "lat": 58.684975,
    "lon": 23.809406,
    "brand_name": "Olerex",
    "brand_id": 198,
    "name": "Lihula Alaküla tankla",
    "city": "Lihula",
    "address": "Alaküla tee 22",
    "distance": 92.002908366221
  },
  {
    "id": 84167,
    "lat": 58.275692,
    "lon": 24.57888,
    "brand_name": "Terminal",
    "brand_id": 199,
    "name": "Uulu",
    "city": "Uulu",
    "address": "Soometsa tee 15",
    "distance": 55.511197068965544
  },
  {
    "id": 61750,
    "lat": 58.396233,
    "lon": 24.452551,
    "brand_name": "Olerex",
    "brand_id": 198,
    "name": "Pärnu Papsaare tankla",
    "city": "Pärnu",
    "address": "Papsaare küla",
    "distance": 56.083597303385915
  },
  {
    "id": 60998,
    "lat": 58.395836,
    "lon": 24.456409,
    "brand_name": "Circle K",
    "brand_id": 186,
    "name": "Audru Automaat",
    "city": "Pärnu",
    "address": "Papsaare küla, Haapsalu mnt 43a",
    "distance": 56.11718488716715
  },
  {
    "id": 64267,
    "lat": 58.386848,
    "lon": 24.490768,
    "brand_name": "Alexela",
    "brand_id": 214,
    "name": "Pärnu jahisadama tankla (Harbour station)",
    "city": "Pärnu",
    "address": "Lootsi tn 1",
    "distance": 57.06234897195992
  },
  {
    "id": 87952,
    "lat": 58.387657,
    "lon": 24.501177,
    "brand_name": "Tesla",
    "brand_id": 170,
    "name": "Pärnu, Estonia",
    "city": "Pärnu",
    "address": "Lai tn 5",
    "distance": 56.97009419935509
  },
  {
    "id": 60987,
    "lat": 58.386471,
    "lon": 24.50351,
    "brand_name": "Circle K",
    "brand_id": 186,
    "name": "Pärnu Hommiku",
    "city": "Pärnu",
    "address": "Hommiku tn 2",
    "distance": 57.10220337174556
  },
  {
    "id": 61030,
    "lat": 58.391899,
    "lon": 24.494667,
    "brand_name": "NESTE",
    "brand_id": 188,
    "name": "Pärnu",
    "city": "Pärnu",
    "address": "Jannseni 1",
    "distance": 56.499083795614844
  },
  {
    "id": 61749,
    "lat": 58.370831,
    "lon": 24.537743,
    "brand_name": "Olerex",
    "brand_id": 198,
    "name": "Pärnu Mai tankla",
    "city": "Pärnu",
    "address": "Mai 6",
    "distance": 66.56394701050819
  },
  {
    "id": 64232,
    "lat": 58.370655,
    "lon": 24.547554,
    "brand_name": "Alexela",
    "brand_id": 214,
    "name": "Pärnu Papiniidu tankla",
    "city": "Pärnu",
    "address": "Papiniidu tn 19a",
    "distance": 66.84851886329645
  },
  {
    "id": 64233,
    "lat": 58.403351,
    "lon": 24.492329,
    "brand_name": "Alexela",
    "brand_id": 214,
    "name": "Pärnu Härma tankla",
    "city": "Pärnu",
    "address": "Tallinna mnt 68",
    "distance": 55.226650907978524
  },
  {
    "id": 60974,
    "lat": 58.362785,
    "lon": 24.56072,
    "brand_name": "Circle K",
    "brand_id": 186,
    "name": "Pärnu Riia Mnt",
    "city": "Pärnu",
    "address": "Riia mnt 233",
    "distance": 67.98244300735901
  },
  {
    "id": 61029,
    "lat": 58.363518,
    "lon": 24.561502,
    "brand_name": "NESTE",
    "brand_id": 188,
    "name": "Pärnu",
    "city": "Pärnu",
    "address": "Riia mnt. 110 A",
    "distance": 67.93237276781564
  },
  {
    "id": 60929,
    "lat": 58.371727,
    "lon": 24.549248,
    "brand_name": "Circle K",
    "brand_id": 186,
    "name": "Pärnu Papiniidu",
    "city": "Pärnu",
    "address": "Papiniidu tn 17",
    "distance": 66.78995643923136
  },
  {
    "id": 64509,
    "lat": 58.406975,
    "lon": 24.490335,
    "brand_name": "Метанстанция",
    "brand_id": 19,
    "name": "Eesti Gaas Pärnu",
    "city": "Pärnu",
    "address": "Pärlimõisa tee 29",
    "distance": 54.82472917467067
  },
  {
    "id": 61748,
    "lat": 58.374584,
    "lon": 24.552975,
    "brand_name": "Olerex",
    "brand_id": 198,
    "name": "Pärnu Laki tankla",
    "city": "Pärnu",
    "address": "Laki 8",
    "distance": 66.61343173941307
  },
  {
    "id": 61801,
    "lat": 58.409603,
    "lon": 24.494125,
    "brand_name": "Olerex",
    "brand_id": 198,
    "name": "Pärnu Tallinna mnt tankla",
    "city": "Pärnu",
    "address": "Tallinna mnt 95",
    "distance": 54.53070391288876
  },
  {
    "id": 60953,
    "lat": 58.407356,
    "lon": 24.498302,
    "brand_name": "Circle K",
    "brand_id": 186,
    "name": "Pärnu Ülejõe",
    "city": "Pärnu",
    "address": "Ehitajate tee 4",
    "distance": 54.77957228818738
  },
  {
    "id": 61747,
    "lat": 58.404472,
    "lon": 24.504026,
    "brand_name": "Olerex",
    "brand_id": 198,
    "name": "Pärnu Ehitajate tee automaattankla",
    "city": "Pärnu",
    "address": "Ehitajate tee 6",
    "distance": 55.1006528275404
  },
  {
    "id": 60967,
    "lat": 58.410549,
    "lon": 24.493032,
    "brand_name": "Circle K",
    "brand_id": 186,
    "name": "Pärnu Tallinna Mnt",
    "city": "Pärnu",
    "address": "Tallinna mnt 84",
    "distance": 54.425941907340444
  },
  {
    "id": 61015,
    "lat": 58.4062,
    "lon": 24.5103,
    "brand_name": "Premium7",
    "brand_id": 187,
    "name": "Pärnu, Killustiku tankla",
    "city": "Pärnu",
    "address": "Killustiku 2",
    "distance": 54.91128708324196
  },
  {
    "id": 64510,
    "lat": 58.397079,
    "lon": 24.534691,
    "brand_name": "Метанстанция",
    "brand_id": 19,
    "name": "Eesti Gaas Pärnu, Savi",
    "city": "Pärnu",
    "address": "Savi 39",
    "distance": 55.95826420740598
  },
  {
    "id": 61031,
    "lat": 58.39431,
    "lon": 24.539551,
    "brand_name": "NESTE",
    "brand_id": 188,
    "name": "Pärnu",
    "city": "Pärnu",
    "address": "Niidu 9",
    "distance": 56.27669722760471
  },
  {
    "id": 61758,
    "lat": 58.430561,
    "lon": 24.498348,
    "brand_name": "Olerex",
    "brand_id": 198,
    "name": "Sauga tankla",
    "city": "Sauga",
    "address": "Jänesselja 9",
    "distance": 52.199315247597575
  },
  {
    "id": 61759,
    "lat": 58.404724,
    "lon": 24.660528,
    "brand_name": "Olerex",
    "brand_id": 198,
    "name": "Sindi tankla",
    "city": "Sindi",
    "address": "Ringi 5c",
    "distance": 58.468345633190594
  },
  {
    "id": 61730,
    "lat": 58.143803,
    "lon": 24.960463,
    "brand_name": "Olerex",
    "brand_id": 198,
    "name": "Kilingi-Nõmme tankla",
    "city": "Kilingi-Nõmme",
    "address": "Kalmistu tee 2",
    "distance": 67.13144556295737
  },
  {
    "id": 64235,
    "lat": 58.595726,
    "lon": 24.509779,
    "brand_name": "Alexela",
    "brand_id": 214,
    "name": "Halinga tankla",
    "city": "Põhja-Pärnumaa vald",
    "address": "Halinga tankla",
    "distance": 66.39114720024105
  },
  {
    "id": 84164,
    "lat": 58.518425,
    "lon": 24.819906,
    "brand_name": "Terminal",
    "brand_id": 199,
    "name": "Sell",
    "city": "Selja",
    "address": "Rakvere mnt 18",
    "distance": 57.817566161974526
  },
  {
    "id": 84159,
    "lat": 58.326664,
    "lon": 25.307476,
    "brand_name": "Terminal",
    "brand_id": 199,
    "name": "Kõpu",
    "city": "Kõpu",
    "address": "Viljandi mnt 4",
    "distance": 64.71957378270288
  },
  {
    "id": 61720,
    "lat": 58.704926,
    "lon": 24.423817,
    "brand_name": "Olerex",
    "brand_id": 198,
    "name": "Enge tankla",
    "city": "Jädivere",
    "address": "Jädivere küla",
    "distance": 65.67073415960368
  },
  {
    "id": 60986,
    "lat": 58.345959,
    "lon": 25.578424,
    "brand_name": "Circle K",
    "brand_id": 186,
    "name": "Viljandi Männimäe",
    "city": "Viljandi",
    "address": "Riia mnt 52a",
    "distance": 66.26496461720298
  },
  {
    "id": 64512,
    "lat": 58.358166,
    "lon": 25.565653,
    "brand_name": "Метанстанция",
    "brand_id": 19,
    "name": "Eesti Gaas Viljandi",
    "city": "Viljandi",
    "address": "Planeedi 11",
    "distance": 65.2844761676283
  },
  {
    "id": 61792,
    "lat": 58.364895,
    "lon": 25.562103,
    "brand_name": "Olerex",
    "brand_id": 198,
    "name": "Viljandi tankla",
    "city": "Viljandi",
    "address": "Metsküla tee 9",
    "distance": 64.67388253209407
  },
  {
    "id": 61057,
    "lat": 58.357327,
    "lon": 25.583403,
    "brand_name": "NESTE",
    "brand_id": 188,
    "name": "Viljandi",
    "city": "Viljandi",
    "address": "Riia Maantee 18",
    "distance": 64.98249190362172
  },
  {
    "id": 61793,
    "lat": 58.372082,
    "lon": 25.563377,
    "brand_name": "Olerex",
    "brand_id": 198,
    "name": "Viljandi Mustivere tankla",
    "city": "Viljandi",
    "address": "Eerikaru 2",
    "distance": 63.90920937870842
  },
  {
    "id": 64248,
    "lat": 58.368092,
    "lon": 25.599758,
    "brand_name": "Alexela",
    "brand_id": 214,
    "name": "Viljandi tankla",
    "city": 71008,
    "address": "Uus tn 4",
    "distance": 63.51996674388112
  },
  {
    "id": 64278,
    "lat": 58.370781,
    "lon": 25.597559,
    "brand_name": "Alexela",
    "brand_id": 214,
    "name": "Viljandi Uku tankla",
    "city": 71013,
    "address": "A. Maramaa pst 15",
    "distance": 63.287964967249486
  },
  {
    "id": 60960,
    "lat": 58.369999,
    "lon": 25.59889,
    "brand_name": "Circle K",
    "brand_id": 186,
    "name": "Viljandi Endla",
    "city": "Viljandi",
    "address": "Endla tn 1",
    "distance": 63.34054616405669
  },
  {
    "id": 60977,
    "lat": 58.378826,
    "lon": 25.594591,
    "brand_name": "Circle K",
    "brand_id": 186,
    "name": "Viljandi Leola",
    "city": "Viljandi",
    "address": "Leola tn 71",
    "distance": 62.520176751239404
  },
  {
    "id": 61058,
    "lat": 58.378643,
    "lon": 25.595451,
    "brand_name": "NESTE",
    "brand_id": 188,
    "name": "Viljandi",
    "city": "Viljandi",
    "address": "Tallinna maantee 97 d",
    "distance": 62.5204173008084
  },
  {
    "id": 60996,
    "lat": 58.362801,
    "lon": 25.632748,
    "brand_name": "Circle K",
    "brand_id": 186,
    "name": "Viiratsi Automaat",
    "city": "Viljandi",
    "address": "Tartu tn 102",
    "distance": 63.403218368069055
  },
  {
    "id": 64263,
    "lat": 58.652363,
    "lon": 25.022509,
    "brand_name": "Alexela",
    "brand_id": 214,
    "name": "Vändra tankla",
    "city": "Põhja-Pärnumaa vald",
    "address": "J. V. Jannseni tn 4",
    "distance": 62.71189062235304
  },
  {
    "id": 64201,
    "lat": 58.652969,
    "lon": 25.034014,
    "brand_name": "Premium7",
    "brand_id": 187,
    "name": "Vändra",
    "city": "Vändra",
    "address": "Pärnu-Paide mnt 17a",
    "distance": 62.086495084870116
  },
  {
    "id": 64250,
    "lat": 58.528862,
    "lon": 25.464212,
    "brand_name": "Alexela",
    "brand_id": 214,
    "name": "Suure-Jaani tankla",
    "city": "Põhja-Sakala vald",
    "address": "Oja tn 2",
    "distance": 51.57778663907083
  },
  {
    "id": 61761,
    "lat": 58.536472,
    "lon": 25.484577,
    "brand_name": "Olerex",
    "brand_id": 198,
    "name": "Suure-Jaani automaattankla/pood",
    "city": "Suure-Jaani",
    "address": "Jaama 31",
    "distance": 71.21136899871345
  },
  {
    "id": 84165,
    "lat": 58.339684,
    "lon": 26.318871,
    "brand_name": "Terminal",
    "brand_id": 199,
    "name": "Puhja",
    "city": "Puhja",
    "address": "Hommiku 2",
    "distance": 63.18073389288164
  },
  {
    "id": 64244,
    "lat": 58.471283,
    "lon": 26.360418,
    "brand_name": "Alexela",
    "brand_id": 214,
    "name": "Laeva tankla",
    "city": "Tartu vald",
    "address": "Tankla",
    "distance": 81.29923576363686
  },
  {
    "id": 61721,
    "lat": 58.356464,
    "lon": 26.620878,
    "brand_name": "Olerex",
    "brand_id": 198,
    "name": "Haage tankla",
    "city": "Haage",
    "address": "Side põik 1a",
    "distance": 79.00846879955485
  },
  {
    "id": 61817,
    "lat": 58.321899,
    "lon": 26.71302,
    "brand_name": "Terminal",
    "brand_id": 199,
    "name": "Tõrvandi",
    "city": "Tõrvandi",
    "address": "Kauba tee 4",
    "distance": 98.42353321110166
  },
  {
    "id": 61737,
    "lat": 58.345688,
    "lon": 26.665384,
    "brand_name": "Olerex",
    "brand_id": 198,
    "name": "Lemmatsi tankla",
    "city": "Lemmatsi",
    "address": "Lemmatsi küla",
    "distance": 98.83776174882851
  },
  {
    "id": 61784,
    "lat": 58.35405,
    "lon": 26.686199,
    "brand_name": "Olerex",
    "brand_id": 198,
    "name": "Tartu Räni tankla",
    "city": "Tartu",
    "address": "Aardla 107",
    "distance": 97.30890081996334
  },
  {
    "id": 64240,
    "lat": 58.357468,
    "lon": 26.680462,
    "brand_name": "Alexela",
    "brand_id": 214,
    "name": "Tartu Lõunakeskuse tankla",
    "city": "Tartu",
    "address": "Ringtee tn 75b",
    "distance": 97.32974387194406
  },
  {
    "id": 60949,
    "lat": 58.342781,
    "lon": 26.71472,
    "brand_name": "Circle K",
    "brand_id": 186,
    "name": "Tartu Võru Mnt",
    "city": "Tartu",
    "address": "Tartu linn, Võru tn 250",
    "distance": 96.83042453275179
  },
  {
    "id": 61021,
    "lat": 58.342884,
    "lon": 26.715757,
    "brand_name": "NESTE",
    "brand_id": 188,
    "name": "Tartu",
    "city": "Tartu",
    "address": "Voru 244",
    "distance": 96.77678827686417
  },
  {
    "id": 60934,
    "lat": 58.360439,
    "lon": 26.677456,
    "brand_name": "Circle K",
    "brand_id": 186,
    "name": "Tartu Lõunakeskuse",
    "city": "Tartu",
    "address": "Ringtee tn 71",
    "distance": 97.25962560668347
  },
  {
    "id": 61066,
    "lat": 58.361904,
    "lon": 26.675411,
    "brand_name": "NESTE",
    "brand_id": 188,
    "name": "Tartu Ringtee",
    "city": "Tartu",
    "address": "Ringtee 69 c",
    "distance": 97.25126420644449
  },
  {
    "id": 64304,
    "lat": 58.341129,
    "lon": 26.723841,
    "brand_name": "Alexela",
    "brand_id": 214,
    "name": "Tartu Jalaka CNG tankla",
    "city": "Tartu",
    "address": "Jalaka 77",
    "distance": 96.54460900232182
  },
  {
    "id": 64143,
    "lat": 58.342968,
    "lon": 26.720526,
    "brand_name": "Бензиностанция",
    "brand_id": 20,
    "name": "Go Oil",
    "city": "Tartu",
    "address": "Ringtee 21",
    "distance": 96.55880746175293
  },
  {
    "id": 64508,
    "lat": 58.340126,
    "lon": 26.730778,
    "brand_name": "Метанстанция",
    "brand_id": 19,
    "name": "Eesti Gaas Tartu",
    "city": "Tartu",
    "address": "Tähe 135e",
    "distance": 96.31046202838886
  },
  {
    "id": 61783,
    "lat": 58.343437,
    "lon": 26.737539,
    "brand_name": "Olerex",
    "brand_id": 198,
    "name": "Tartu Ringtee tankla",
    "city": "Tartu",
    "address": "Ringtee 28",
    "distance": 95.77117420618251
  },
  {
    "id": 61781,
    "lat": 58.355171,
    "lon": 26.712988,
    "brand_name": "Olerex",
    "brand_id": 198,
    "name": "Tartu Aardla automaattankla",
    "city": "Tartu",
    "address": "Aardla 27b",
    "distance": 96.02223651390955
  },
  {
    "id": 60942,
    "lat": 58.355831,
    "lon": 26.721109,
    "brand_name": "Circle K",
    "brand_id": 186,
    "name": "Tartu Aardla",
    "city": "Tartu",
    "address": "Tartu linn, Võru tn 81",
    "distance": 95.61103055703184
  },
  {
    "id": 61065,
    "lat": 58.374962,
    "lon": 26.67828,
    "brand_name": "NESTE",
    "brand_id": 188,
    "name": "Tartu",
    "city": "Tartu",
    "address": "Ringtee 52",
    "distance": 96.22154498750724
  },
  {
    "id": 61005,
    "lat": 58.350571,
    "lon": 26.740372,
    "brand_name": "Circle K",
    "brand_id": 186,
    "name": "Sepa Automaat",
    "city": "Tartu",
    "address": "Tartu linn, Sepa tn 25",
    "distance": 95.12927174088456
  },
  {
    "id": 61786,
    "lat": 58.375648,
    "lon": 26.694893,
    "brand_name": "Olerex",
    "brand_id": 198,
    "name": "Tartu Veeriku automaattankla/pood",
    "city": "Tartu",
    "address": "Veeriku 1",
    "distance": 95.41177592939255
  },
  {
    "id": 61002,
    "lat": 58.361279,
    "lon": 26.740658,
    "brand_name": "Circle K",
    "brand_id": 186,
    "name": "Karlova Automaat",
    "city": "Tartu",
    "address": "Tartu linn, Turu tn 32a",
    "distance": 94.34754584589784
  },
  {
    "id": 64241,
    "lat": 58.371796,
    "lon": 26.721361,
    "brand_name": "Alexela",
    "brand_id": 214,
    "name": "Tartu Riiamäe tankla",
    "city": "Tartu",
    "address": "Era tn 2a",
    "distance": 94.47297858777831
  },
  {
    "id": 60997,
    "lat": 58.38937,
    "lon": 26.678827,
    "brand_name": "Circle K",
    "brand_id": 186,
    "name": "Ravila Automaat",
    "city": "Tartu",
    "address": "Ravila tn 63",
    "distance": 95.21988029543617
  },
  {
    "id": 64243,
    "lat": 58.384811,
    "lon": 26.691326,
    "brand_name": "Alexela",
    "brand_id": 214,
    "name": "Tartu Tuglase tankla",
    "city": "Tartu linn",
    "address": "F. Tuglase tn 19",
    "distance": 94.94917060127068
  },
  {
    "id": 61067,
    "lat": 58.374001,
    "lon": 26.723,
    "brand_name": "NESTE",
    "brand_id": 188,
    "name": "Tartu",
    "city": "Tartu",
    "address": "Voru 172",
    "distance": 94.24458996204318
  },
  {
    "id": 61808,
    "lat": 58.368546,
    "lon": 26.745272,
    "brand_name": "Terminal",
    "brand_id": 199,
    "name": "Emajõe",
    "city": "Tartu",
    "address": "Rebase 18a",
    "distance": 93.6234016050195
  },
  {
    "id": 60954,
    "lat": 58.376942,
    "lon": 26.73139,
    "brand_name": "Circle K",
    "brand_id": 186,
    "name": "Tartu Turu",
    "city": "Tartu",
    "address": "Tartu linn, Turu tn 6",
    "distance": 93.65861392371886
  },
  {
    "id": 60984,
    "lat": 58.381931,
    "lon": 26.728497,
    "brand_name": "Circle K",
    "brand_id": 186,
    "name": "Tartu Narva Mnt",
    "city": "Tartu",
    "address": "Tartu linn, Narva mnt 21",
    "distance": 93.44263933165067
  },
  {
    "id": 61069,
    "lat": 58.37392,
    "lon": 26.749491,
    "brand_name": "NESTE",
    "brand_id": 188,
    "name": "Tartu",
    "city": "Tartu",
    "address": "Kalda 1 B",
    "distance": 93.05304399136442
  },
  {
    "id": 61068,
    "lat": 58.384312,
    "lon": 26.726629,
    "brand_name": "NESTE",
    "brand_id": 188,
    "name": "Tartu",
    "city": "Tartu",
    "address": "Narva maantee 29",
    "distance": 93.3630542194306
  },
  {
    "id": 60950,
    "lat": 58.37278,
    "lon": 26.753889,
    "brand_name": "Circle K",
    "brand_id": 186,
    "name": "Tartu Anne",
    "city": "Tartu",
    "address": "Tartu linn, Kalda tee 1",
    "distance": 92.9360469634333
  },
  {
    "id": 61017,
    "lat": 58.368141,
    "lon": 26.76786,
    "brand_name": "Terminal",
    "brand_id": 199,
    "name": "Annelinn",
    "city": "Tartu",
    "address": "Kalda tee 43b",
    "distance": 92.6421938594914
  },
  {
    "id": 64242,
    "lat": 58.372059,
    "lon": 26.761906,
    "brand_name": "Alexela",
    "brand_id": 214,
    "name": "Tartu Kalda tee tankla",
    "city": "Tartu",
    "address": "Kalda tee 24b",
    "distance": 92.62794687570701
  },
  {
    "id": 64239,
    "lat": 58.377815,
    "lon": 26.754166,
    "brand_name": "Alexela",
    "brand_id": 214,
    "name": "Tartu Anne tankla",
    "city": "Tartu",
    "address": "Anne tn 46",
    "distance": 92.56744627937597
  },
  {
    "id": 61782,
    "lat": 58.381176,
    "lon": 26.754385,
    "brand_name": "Olerex",
    "brand_id": 198,
    "name": "Tartu Jaama automaattankla/pood",
    "city": "Tartu",
    "address": "Jaama 82",
    "distance": 92.32090218298723
  },
  {
    "id": 60955,
    "lat": 58.406792,
    "lon": 26.709358,
    "brand_name": "Circle K",
    "brand_id": 186,
    "name": "Tartu Kvissentali",
    "city": "Tartu",
    "address": "Vahi alevik, Astelpaju tn 2a",
    "distance": 92.63321283847034
  },
  {
    "id": 61785,
    "lat": 58.401165,
    "lon": 26.728193,
    "brand_name": "Olerex",
    "brand_id": 198,
    "name": "Tartu Vahi tankla",
    "city": "Tartu",
    "address": "Vahi 5",
    "distance": 92.13750115918774
  },
  {
    "id": 61814,
    "lat": 58.407661,
    "lon": 26.749729,
    "brand_name": "Terminal",
    "brand_id": 199,
    "name": "Raadi",
    "city": "Tartu",
    "address": "Nõlvakaare 2",
    "distance": 90.70278425463083
  },
  {
    "id": 64202,
    "lat": 58.421822,
    "lon": 26.771187,
    "brand_name": "Premium7",
    "brand_id": 187,
    "name": "Kõrveküla",
    "city": "Kõrveküla",
    "address": "Liiva 3",
    "distance": 88.75283330329867
  },
  {
    "id": 64198,
    "lat": 58.381195,
    "lon": 26.990793,
    "brand_name": "Terminal",
    "brand_id": 199,
    "name": "Saaga (for boats)",
    "city": "Kikaste",
    "address": "Saaga tee 9c",
    "distance": 82.08620348714493
  },
  {
    "id": 61810,
    "lat": 58.46003,
    "lon": 26.654234,
    "brand_name": "Terminal",
    "brand_id": 199,
    "name": "Kärkna",
    "city": "Kärkna",
    "address": "Kärkna küla",
    "distance": 91.88957810309344
  },
  {
    "id": 61717,
    "lat": 58.446655,
    "lon": 26.808813,
    "brand_name": "Olerex",
    "brand_id": 198,
    "name": "Aovere tankla",
    "city": "Aovere",
    "address": "Torinurga",
    "distance": 85.34151424834897
  },
  {
    "id": 61739,
    "lat": 58.490768,
    "lon": 26.681908,
    "brand_name": "Olerex",
    "brand_id": 198,
    "name": "Lähte tankla",
    "city": "Lähte",
    "address": "Kase 2",
    "distance": 88.71077510679922
  },
  {
    "id": 84161,
    "lat": 58.377071,
    "lon": 27.511646,
    "brand_name": "Terminal",
    "brand_id": 199,
    "name": "Piirissaare",
    "city": "Tooni",
    "address": "Piirissaare sadam",
    "distance": 64.65064927388515
  },
  {
    "id": 61715,
    "lat": 58.599972,
    "lon": 27.133863,
    "brand_name": "Olerex",
    "brand_id": 198,
    "name": "Alatskivi tankla",
    "city": "Alatskivi",
    "address": "Tartu mnt 5",
    "distance": 91.39654678094203
  },
  {
    "id": 64938,
    "lat": 58.576576,
    "lon": 26.289141,
    "brand_name": "Terminal",
    "brand_id": 199,
    "name": "Puurmani",
    "city": "Puurmani",
    "address": "Tallinna mnt 2",
    "distance": 78.58227007652182
  },
  {
    "id": 64274,
    "lat": 58.668797,
    "lon": 27.165998,
    "brand_name": "Alexela",
    "brand_id": 214,
    "name": "Kallaste sadamatankla (Harbour station)",
    "city": "Kallaste",
    "address": "Tööstuse tn 1",
    "distance": 94.27146266377869
  },
  {
    "id": 61734,
    "lat": 58.829372,
    "lon": 22.773281,
    "brand_name": "Olerex",
    "brand_id": 198,
    "name": "Käina tankla",
    "city": "Käina",
    "address": "Mäe 2",
    "distance": 64.75698954324075
  },
  {
    "id": 61735,
    "lat": 58.994461,
    "lon": 22.722527,
    "brand_name": "Olerex",
    "brand_id": 198,
    "name": "Kärdla tankla",
    "city": "Kärdla",
    "address": "Kõrgessaare mnt 45",
    "distance": 63.1918811198359
  },
  {
    "id": 61023,
    "lat": 58.989216,
    "lon": 22.76511,
    "brand_name": "NESTE",
    "brand_id": 188,
    "name": "Kärdla",
    "city": "Kärdla",
    "address": "Nurme Linnumäe",
    "distance": 61.94857136327736
  },
  {
    "id": 64230,
    "lat": 58.98851,
    "lon": 23.246828,
    "brand_name": "Alexela",
    "brand_id": 214,
    "name": "Vormsi tankla",
    "city": "Hullo",
    "address": "Tankla",
    "distance": 47.97311317532257
  },
  {
    "id": 61024,
    "lat": 58.925385,
    "lon": 23.545969,
    "brand_name": "NESTE",
    "brand_id": 188,
    "name": "Haapsalu",
    "city": "Haapsalu",
    "address": "Lihula maantee 29",
    "distance": 52.83983330886803
  },
  {
    "id": 61009,
    "lat": 58.935638,
    "lon": 23.529816,
    "brand_name": "Premium7",
    "brand_id": 187,
    "name": "Haapsalu, Kiltsi tankla",
    "city": "Haapsalu",
    "address": "Kiltsi tee 3",
    "distance": 51.66264890113502
  },
  {
    "id": 64228,
    "lat": 58.936741,
    "lon": 23.565283,
    "brand_name": "Alexela",
    "brand_id": 214,
    "name": "Haapsalu tankla",
    "city": "Haapsalu",
    "address": "Tallinna mnt 64a",
    "distance": 51.64623512232159
  },
  {
    "id": 64297,
    "lat": 58.958134,
    "lon": 23.526318,
    "brand_name": "Alexela",
    "brand_id": 214,
    "name": "Haapsalu sadamatankla (Harbour station)",
    "city": "Haapsalu linn",
    "address": "Westmeri tn 3",
    "distance": 49.15616181724527
  },
  {
    "id": 64296,
    "lat": 58.936756,
    "lon": 23.569187,
    "brand_name": "Alexela",
    "brand_id": 214,
    "name": "Haapsalu Rannarootsi tankla",
    "city": "Haapsalu",
    "address": "Rannarootsi tee 2",
    "distance": 51.66104768800201
  },
  {
    "id": 61797,
    "lat": 58.938324,
    "lon": 23.57316,
    "brand_name": "Olerex",
    "brand_id": 198,
    "name": "Haapsalu tankla",
    "city": "Haapsalu",
    "address": "Tallinna mnt 75",
    "distance": 51.505047441201604
  },
  {
    "id": 60943,
    "lat": 58.938629,
    "lon": 23.5741,
    "brand_name": "Circle K",
    "brand_id": 186,
    "name": "Uuemõisa",
    "city": "Haapsalu",
    "address": "Uuemõisa alevik, Tallinna mnt 77",
    "distance": 51.475591461265196
  },
  {
    "id": 64276,
    "lat": 59.209709,
    "lon": 23.498415,
    "brand_name": "Alexela",
    "brand_id": 214,
    "name": "Dirhami sadamatankla (Harbour station)",
    "city": "Dirhami",
    "address": "Dirhami sadam",
    "distance": 35.47245637398224
  },
  {
    "id": 61742,
    "lat": 58.894669,
    "lon": 24.416359,
    "brand_name": "Olerex",
    "brand_id": 198,
    "name": "Märjamaa Uus tn tankla",
    "city": "Märjamaa",
    "address": "Uus 6",
    "distance": 98.38700837016
  },
  {
    "id": 60930,
    "lat": 58.921387,
    "lon": 24.457182,
    "brand_name": "Circle K",
    "brand_id": 186,
    "name": "Märjamaa",
    "city": "Märjamaa",
    "address": "Orgita küla",
    "distance": 59.923244941865285
  },
  {
    "id": 61799,
    "lat": 58.921761,
    "lon": 24.457619,
    "brand_name": "Olerex",
    "brand_id": 198,
    "name": "Märjamaa Orgita küla tankla",
    "city": "Märjamaa",
    "address": "Kõrtsu kinnistu",
    "distance": 98.64405762504592
  },
  {
    "id": 84160,
    "lat": 58.777199,
    "lon": 24.817989,
    "brand_name": "Terminal",
    "brand_id": 199,
    "name": "Järvakandi",
    "city": "Järvakandi",
    "address": "Eidapere tee 3",
    "distance": 69.36667023896764
  },
  {
    "id": 64221,
    "lat": 59.12281,
    "lon": 24.302452,
    "brand_name": "Alexela",
    "brand_id": 214,
    "name": "Riisipere tankla",
    "city": "Vilumäe",
    "address": "Mäekalda",
    "distance": 35.29132425523345
  },
  {
    "id": 61754,
    "lat": 58.994431,
    "lon": 24.797861,
    "brand_name": "Olerex",
    "brand_id": 198,
    "name": "Rapla tankla",
    "city": "Rapla",
    "address": "Kastani 9",
    "distance": 69.74550072065922
  },
  {
    "id": 61048,
    "lat": 59.010525,
    "lon": 24.797306,
    "brand_name": "NESTE",
    "brand_id": 188,
    "name": "Rapla",
    "city": "Rapla",
    "address": "Tallinna maantee 1",
    "distance": 70.05274572040763
  },
  {
    "id": 60989,
    "lat": 59.153919,
    "lon": 24.504124,
    "brand_name": "Бензиностанция",
    "brand_id": 20,
    "name": "KROONING Station",
    "city": "Kernu",
    "address": "Kernu",
    "distance": 39.60900179828278
  },
  {
    "id": 61789,
    "lat": 58.814095,
    "lon": 25.403942,
    "brand_name": "Olerex",
    "brand_id": 198,
    "name": "Türi tankla",
    "city": "Türi",
    "address": "Tehnika 6",
    "distance": 90.33146846012926
  },
  {
    "id": 64225,
    "lat": 58.801418,
    "lon": 25.429413,
    "brand_name": "Alexela",
    "brand_id": 214,
    "name": "Türi tankla",
    "city": "Türi vald",
    "address": "Viljandi tn 15",
    "distance": 90.37104863352262
  },
  {
    "id": 60970,
    "lat": 59.181557,
    "lon": 24.781567,
    "brand_name": "Circle K",
    "brand_id": 186,
    "name": "Urge",
    "city": "Urge",
    "address": "Urge küla",
    "distance": 51.6621333843604
  },
  {
    "id": 64281,
    "lat": 59.243267,
    "lon": 24.490959,
    "brand_name": "Alexela",
    "brand_id": 214,
    "name": "Harutee tankla",
    "city": "Saue vald",
    "address": "Harutee tankla",
    "distance": 17.4354592206528
  },
  {
    "id": 61811,
    "lat": 58.879398,
    "lon": 25.535,
    "brand_name": "Terminal",
    "brand_id": 199,
    "name": "Paide",
    "city": "Paide",
    "address": "Pärnuvälja 3",
    "distance": 79.8767309771462
  },
  {
    "id": 61003,
    "lat": 58.882011,
    "lon": 25.538057,
    "brand_name": "Circle K",
    "brand_id": 186,
    "name": "Paide Automaat",
    "city": "Paide",
    "address": "Pärnu tn 112",
    "distance": 79.5445816464076
  },
  {
    "id": 61743,
    "lat": 58.887501,
    "lon": 25.541334,
    "brand_name": "Olerex",
    "brand_id": 198,
    "name": "Paide Raudtee tn tankla",
    "city": "Paide",
    "address": "Raudtee 37",
    "distance": 78.97121795923412
  },
  {
    "id": 61723,
    "lat": 58.731842,
    "lon": 25.762897,
    "brand_name": "Olerex",
    "brand_id": 198,
    "name": "Imavere automaattankla",
    "city": "Imavere",
    "address": "Kadastiku tee 4",
    "distance": 85.40973195156303
  },
  {
    "id": 61744,
    "lat": 58.894665,
    "lon": 25.570984,
    "brand_name": "Olerex",
    "brand_id": 198,
    "name": "Paide Tallinna mnt tankla",
    "city": "Paide",
    "address": "Tallinna mnt 59",
    "distance": 98.98053589303764
  },
  {
    "id": 64303,
    "lat": 58.745819,
    "lon": 25.768045,
    "brand_name": "Alexela",
    "brand_id": 214,
    "name": "Paiaristi",
    "city": "Järva küla",
    "address": "Paiaristi",
    "distance": 83.91002938176518
  },
  {
    "id": 61013,
    "lat": 58.908737,
    "lon": 25.618589,
    "brand_name": "Premium7",
    "brand_id": 187,
    "name": "Mäo",
    "city": "Mäo",
    "address": "Mäo",
    "distance": 95.84474876886883
  },
  {
    "id": 61059,
    "lat": 58.900482,
    "lon": 25.635643,
    "brand_name": "NESTE",
    "brand_id": 188,
    "name": "Mäo",
    "city": "Mäo",
    "address": "Järva maakond",
    "distance": 95.58557100412865
  },
  {
    "id": 60936,
    "lat": 58.91843,
    "lon": 25.610758,
    "brand_name": "Circle K",
    "brand_id": 186,
    "name": "Mäo",
    "city": "Paide",
    "address": "Mäo küla, Ristmiku",
    "distance": 95.59484702551265
  },
  {
    "id": 60981,
    "lat": 58.705429,
    "lon": 25.899652,
    "brand_name": "Circle K",
    "brand_id": 186,
    "name": "Adavere",
    "city": "Adavere",
    "address": "Adavere alevik, Tallinna mnt 8",
    "distance": 99.61565849926893
  },
  {
    "id": 61812,
    "lat": 58.652351,
    "lon": 25.949879,
    "brand_name": "Terminal",
    "brand_id": 199,
    "name": "Kuningamäe",
    "city": "Kuningamäe",
    "address": "Kingu tee 2",
    "distance": 88.89501750928304
  },
  {
    "id": 61745,
    "lat": 58.663692,
    "lon": 25.989147,
    "brand_name": "Olerex",
    "brand_id": 198,
    "name": "Põltsamaa tankla",
    "city": "Põltsamaa",
    "address": "Puhu rist",
    "distance": 86.93407447352534
  },
  {
    "id": 64227,
    "lat": 58.663097,
    "lon": 25.990938,
    "brand_name": "Alexela",
    "brand_id": 214,
    "name": "Põltsamaa tankla",
    "city": "",
    "address": "Jõgeva mnt 25 Põltsamaa Põltsamaa vald Jõgevamaa",
    "distance": 86.96204739326663
  },
  {
    "id": 64284,
    "lat": 59.167637,
    "lon": 25.173037,
    "brand_name": "Alexela",
    "brand_id": 214,
    "name": "Kose-Risti tankla",
    "city": "Kose vald",
    "address": "Tartu mnt 2a",
    "distance": 79.67144092601947
  },
  {
    "id": 64283,
    "lat": 59.184784,
    "lon": 25.158812,
    "brand_name": "Alexela",
    "brand_id": 214,
    "name": "Kose tankla",
    "city": "Kose vald",
    "address": "Ujula tn 10",
    "distance": 79.82587458620429
  },
  {
    "id": 64218,
    "lat": 59.270199,
    "lon": 24.740511,
    "brand_name": "Alexela",
    "brand_id": 214,
    "name": "Tõdva tankla",
    "city": "Tõdva",
    "address": "Tõdva tankla",
    "distance": 44.406025047057625
  },
  {
    "id": 64279,
    "lat": 58.957489,
    "lon": 26.009983,
    "brand_name": "Alexela",
    "brand_id": 214,
    "name": "Koeru tankla",
    "city": "Järva vald",
    "address": "Paide tee 31",
    "distance": 98.11552267583978
  },
  {
    "id": 61727,
    "lat": 59.033112,
    "lon": 25.89049,
    "brand_name": "Olerex",
    "brand_id": 198,
    "name": "Järva-Jaani tankla",
    "city": "Järva-Jaani",
    "address": "Koeru tee 21",
    "distance": 75.17247681521722
  },
  {
    "id": 64266,
    "lat": 58.74416,
    "lon": 26.36302,
    "brand_name": "Alexela",
    "brand_id": 214,
    "name": "Jõgeva Õuna tankla",
    "city": "Jõgeva vald",
    "address": "Risti",
    "distance": 97.67194116027856
  },
  {
    "id": 61064,
    "lat": 58.739803,
    "lon": 26.371597,
    "brand_name": "NESTE",
    "brand_id": 188,
    "name": "Jögeva",
    "city": "Jögeva",
    "address": "Suur 95",
    "distance": 97.7127668512452
  },
  {
    "id": 64226,
    "lat": 58.743042,
    "lon": 26.386875,
    "brand_name": "Alexela",
    "brand_id": 214,
    "name": "Jõgeva tankla",
    "city": "Jõgeva vald",
    "address": "Piiri tn 16",
    "distance": 96.864820196573
  },
  {
    "id": 61725,
    "lat": 58.745178,
    "lon": 26.400585,
    "brand_name": "Olerex",
    "brand_id": 198,
    "name": "Jõgeva tankla",
    "city": "Jõgeva",
    "address": "Estakaadi 1",
    "distance": 96.17100962714217
  },
  {
    "id": 61787,
    "lat": 58.814022,
    "lon": 26.742666,
    "brand_name": "Olerex",
    "brand_id": 198,
    "name": "Torma automaattankla",
    "city": "Torma",
    "address": "Vesiroosi kinnistu",
    "distance": 96.94210730138069
  },
  {
    "id": 61816,
    "lat": 58.816628,
    "lon": 26.742533,
    "brand_name": "Terminal",
    "brand_id": 199,
    "name": "Torma",
    "city": "Torma",
    "address": "Tartu mnt 14",
    "distance": 96.75122223363381
  },
  {
    "id": 61741,
    "lat": 58.848179,
    "lon": 26.914425,
    "brand_name": "Olerex",
    "brand_id": 198,
    "name": "Mustvee tankla",
    "city": "Mustvee",
    "address": "Tartu tn. 74",
    "distance": 87.18936227532352
  },
  {
    "id": 60958,
    "lat": 58.850731,
    "lon": 26.913198,
    "brand_name": "Circle K",
    "brand_id": 186,
    "name": "Mustvee",
    "city": "Mustvee",
    "address": "Uus-Narva mnt 5",
    "distance": 87.03811787540975
  },
  {
    "id": 61722,
    "lat": 59.082409,
    "lon": 27.316763,
    "brand_name": "Olerex",
    "brand_id": 198,
    "name": "Iisaku tankla",
    "city": "Iisaku",
    "address": "Tartu mnt 67",
    "distance": 52.50444701748024
  },
  {
    "id": 84162,
    "lat": 58.996216,
    "lon": 27.738638,
    "brand_name": "Terminal",
    "brand_id": 199,
    "name": "Vasknarva",
    "city": "Vasknarva",
    "address": "Paadisadama",
    "distance": 47.30071424684748
  },
  {
    "id": 64300,
    "lat": 59.219109,
    "lon": 27.513193,
    "brand_name": "Alexela",
    "brand_id": 214,
    "name": "Illuka tankla",
    "city": "Illuka",
    "address": "Valla",
    "distance": 34.174362614793736
  },
  {
    "id": 64219,
    "lat": 59.339424,
    "lon": 24.105116,
    "brand_name": "Alexela",
    "brand_id": 214,
    "name": "Paldiski tankla",
    "city": "Paldiski",
    "address": "Tallinna mnt 20",
    "distance": 8.990778589624236
  },
  {
    "id": 64282,
    "lat": 59.307934,
    "lon": 24.397938,
    "brand_name": "Alexela",
    "brand_id": 214,
    "name": "Keila Rõõmu tankla",
    "city": 76607,
    "address": "Haapsalu mnt 62",
    "distance": 11.758659821580416
  },
  {
    "id": 61028,
    "lat": 59.308109,
    "lon": 24.423809,
    "brand_name": "NESTE",
    "brand_id": 188,
    "name": "Keila",
    "city": "Keila",
    "address": "Paldiski maantee 35/4",
    "distance": 11.09279495745873
  },
  {
    "id": 61027,
    "lat": 59.314251,
    "lon": 24.42234,
    "brand_name": "NESTE",
    "brand_id": 188,
    "name": "Keila",
    "city": "Keila",
    "address": "Piiri 14",
    "distance": 10.501775052709892
  },
  {
    "id": 61729,
    "lat": 59.312431,
    "lon": 24.428108,
    "brand_name": "Olerex",
    "brand_id": 198,
    "name": "Keila tankla",
    "city": "Keila",
    "address": "Põhjakaare 8",
    "distance": 10.555315979129935
  },
  {
    "id": 64307,
    "lat": 59.310581,
    "lon": 24.437422,
    "brand_name": "Alexela",
    "brand_id": 214,
    "name": "Keila tankla",
    "city": "Keila",
    "address": "Ülejõe tee 2",
    "distance": 10.556570046644351
  },
  {
    "id": 60938,
    "lat": 59.311184,
    "lon": 24.437809,
    "brand_name": "Circle K",
    "brand_id": 186,
    "name": "Keila",
    "city": "Keila",
    "address": "Tutermaa küla, Ülejõe",
    "distance": 10.486062872443657
  },
  {
    "id": 64292,
    "lat": 59.445679,
    "lon": 24.380894,
    "brand_name": "Alexela",
    "brand_id": 214,
    "name": "Viti tankla",
    "city": "Harku vald",
    "address": "Viti tankla",
    "distance": 8.437407885814046
  },
  {
    "id": 61757,
    "lat": 59.312752,
    "lon": 24.562525,
    "brand_name": "Olerex",
    "brand_id": 198,
    "name": "Saue tankla",
    "city": "Saue",
    "address": "Tule 51",
    "distance": 10.32848504183565
  },
  {
    "id": 60995,
    "lat": 59.319767,
    "lon": 24.56749,
    "brand_name": "Circle K",
    "brand_id": 186,
    "name": "Saue Automaat",
    "city": "Saue",
    "address": "Tule tn 22a",
    "distance": 9.706747304804338
  },
  {
    "id": 64265,
    "lat": 59.322735,
    "lon": 24.567345,
    "brand_name": "Alexela",
    "brand_id": 214,
    "name": "Saue tankla",
    "city": "Saue vald",
    "address": "Sooja tn 2",
    "distance": 9.401123212575046
  },
  {
    "id": 60994,
    "lat": 59.29298,
    "lon": 24.65271,
    "brand_name": "Circle K",
    "brand_id": 186,
    "name": "Saku Automaat",
    "city": "Saku",
    "address": "Üksnurme tee 6",
    "distance": 14.716073171115047
  },
  {
    "id": 64223,
    "lat": 59.342911,
    "lon": 24.616726,
    "brand_name": "Alexela",
    "brand_id": 214,
    "name": "Laagri tankla",
    "city": "Saue vald",
    "address": "Pärnu mnt 556a",
    "distance": 9.166543538446565
  },
  {
    "id": 61032,
    "lat": 59.345589,
    "lon": 24.620461,
    "brand_name": "NESTE",
    "brand_id": 188,
    "name": "Laagri",
    "city": "Laagri",
    "address": "Pärnu mnt 556c Laagri alevik",
    "distance": 9.1198106653014
  },
  {
    "id": 64217,
    "lat": 59.311874,
    "lon": 24.681707,
    "brand_name": "Alexela",
    "brand_id": 214,
    "name": "Saku tankla",
    "city": "Tammemäe",
    "address": "Tammemäe tankla",
    "distance": 14.215557122135426
  },
  {
    "id": 60941,
    "lat": 59.354172,
    "lon": 24.628059,
    "brand_name": "Circle K",
    "brand_id": 186,
    "name": "Laagri",
    "city": "Tallinn",
    "address": "Nõmme LO, Pärnu mnt 552",
    "distance": 8.864676280808066
  },
  {
    "id": 64286,
    "lat": 59.454662,
    "lon": 24.443678,
    "brand_name": "Alexela",
    "brand_id": 214,
    "name": "Muraste tankla",
    "city": "Harku vald",
    "address": "Lee tee 1a",
    "distance": 6.862258719761026
  },
  {
    "id": 64215,
    "lat": 59.359516,
    "lon": 24.629684,
    "brand_name": "Alexela",
    "brand_id": 214,
    "name": "Pääsküla tankla",
    "city": "Tallinn",
    "address": "Pärnu mnt 534",
    "distance": 8.614602435694911
  },
  {
    "id": 61033,
    "lat": 59.360054,
    "lon": 24.630716,
    "brand_name": "NESTE",
    "brand_id": 188,
    "name": "Pääsküla",
    "city": "Tallinn",
    "address": "Pärnu maantee 453 e",
    "distance": 8.633535063622515
  },
  {
    "id": 61767,
    "lat": 59.358372,
    "lon": 24.635086,
    "brand_name": "Olerex",
    "brand_id": 198,
    "name": "Tallinn Laagri automaattankla",
    "city": "Tallinn",
    "address": "Pärnu mnt 463",
    "distance": 8.942216736864173
  },
  {
    "id": 64290,
    "lat": 59.42205,
    "lon": 24.538446,
    "brand_name": "Alexela",
    "brand_id": 214,
    "name": "Tabasalu tankla",
    "city": "Harku vald",
    "address": "Ranna tee 14",
    "distance": 3.2777761379321544
  },
  {
    "id": 61778,
    "lat": 59.3671,
    "lon": 24.646694,
    "brand_name": "Olerex",
    "brand_id": 198,
    "name": "Tallinn Vabaduse pst tankla",
    "city": "Tallinn",
    "address": "Vabaduse pst 158",
    "distance": 9.077161449525507
  },
  {
    "id": 61001,
    "lat": 59.429718,
    "lon": 24.547129,
    "brand_name": "Circle K",
    "brand_id": 186,
    "name": "Tabasalu Automaat",
    "city": "Tabasalu",
    "address": "Tooma tee 1",
    "distance": 4.24612842040123
  },
  {
    "id": 61765,
    "lat": 59.407246,
    "lon": 24.617777,
    "brand_name": "Olerex",
    "brand_id": 198,
    "name": "Tallinn Harkujärve tankla",
    "city": "Harkujärve",
    "address": "Paldiski maantee 150",
    "distance": 6.714303307843973
  },
  {
    "id": 87138,
    "lat": 59.381199,
    "lon": 24.6639,
    "brand_name": "Бензиностанция",
    "brand_id": 20,
    "name": "Krooning Hiiu Tankla",
    "city": "Tallinn",
    "address": "Pärnu mnt 327a",
    "distance": 9.512368444952067
  },
  {
    "id": 64503,
    "lat": 59.400936,
    "lon": 24.657251,
    "brand_name": "Метанстанция",
    "brand_id": 19,
    "name": "Eesti Gaas Tallinn Vinkli",
    "city": "Tallinn",
    "address": "Vinkli 2a",
    "distance": 8.901333982689481
  },
  {
    "id": 61055,
    "lat": 59.325264,
    "lon": 24.76803,
    "brand_name": "NESTE",
    "brand_id": 188,
    "name": "Luige",
    "city": "Luige",
    "address": "Luige alevik Kiili vald",
    "distance": 42.3013371265498
  },
  {
    "id": 61763,
    "lat": 59.404465,
    "lon": 24.654448,
    "brand_name": "Olerex",
    "brand_id": 198,
    "name": "Tallinn Akadeemia tee automaattankla",
    "city": "Tallinn",
    "address": "Kadaka tee 76F / Akadeemia tee 37",
    "distance": 8.755675725685617
  },
  {
    "id": 87469,
    "lat": 59.407856,
    "lon": 24.656279,
    "brand_name": "Бензиностанция",
    "brand_id": 20,
    "name": "Jetoil Pilvetee",
    "city": "Tallinn",
    "address": "Pilvetee 8",
    "distance": 8.887815700741797
  },
  {
    "id": 64294,
    "lat": 59.419125,
    "lon": 24.637791,
    "brand_name": "Alexela",
    "brand_id": 214,
    "name": "Haabersti tankla",
    "city": "Tallinn",
    "address": "Paldiski mnt 116b",
    "distance": 8.081990080925658
  },
  {
    "id": 61004,
    "lat": 59.412884,
    "lon": 24.651892,
    "brand_name": "Circle K",
    "brand_id": 186,
    "name": "Õismäe Automaat",
    "city": "Tallinn",
    "address": "Haabersti LO, Õismäe tee 10a",
    "distance": 8.714416272611798
  },
  {
    "id": 64287,
    "lat": 59.37149,
    "lon": 24.71664,
    "brand_name": "Alexela",
    "brand_id": 214,
    "name": "Männiku tankla",
    "city": "Tallinn",
    "address": "Kauge tn 2",
    "distance": 44.471858989122424
  },
  {
    "id": 61774,
    "lat": 59.397701,
    "lon": 24.677017,
    "brand_name": "Olerex",
    "brand_id": 198,
    "name": "Tallinn Sõpruse pst tankla",
    "city": "Tallinn",
    "address": "Sõpruse pst 261",
    "distance": 18.284140772599525
  },
  {
    "id": 60992,
    "lat": 59.427631,
    "lon": 24.628691,
    "brand_name": "Circle K",
    "brand_id": 186,
    "name": "Rannamõisa automaat",
    "city": "Tallinn",
    "address": "Vana-Rannamõisa tee 1",
    "distance": 7.902984572118408
  },
  {
    "id": 61766,
    "lat": 59.409138,
    "lon": 24.661232,
    "brand_name": "Olerex",
    "brand_id": 198,
    "name": "Tallinn Kadaka tankla",
    "city": "Tallinn",
    "address": "Kadaka tee 66b",
    "distance": 9.18134879090782
  },
  {
    "id": 61779,
    "lat": 59.419979,
    "lon": 24.646339,
    "brand_name": "Olerex",
    "brand_id": 198,
    "name": "Tallinn Õismäe tee tankla",
    "city": "Tallinn",
    "address": "Õismäe tee 155a/157",
    "distance": 8.573663093898011
  },
  {
    "id": 61037,
    "lat": 59.375427,
    "lon": 24.71821,
    "brand_name": "NESTE",
    "brand_id": 188,
    "name": "Männiku",
    "city": "Tallinn",
    "address": "Männiku tee 99",
    "distance": 44.351541598030316
  },
  {
    "id": 64207,
    "lat": 59.411934,
    "lon": 24.661568,
    "brand_name": "Alexela",
    "brand_id": 214,
    "name": "Ehitajate tee tankla",
    "city": "Tallinn",
    "address": "Ehitajate tee 101",
    "distance": 9.239364242750367
  },
  {
    "id": 64212,
    "lat": 59.414505,
    "lon": 24.658846,
    "brand_name": "Alexela",
    "brand_id": 214,
    "name": "Õismäe tankla",
    "city": "Tallinn",
    "address": "Ehitajate tee 114c",
    "distance": 9.132734673819357
  },
  {
    "id": 61035,
    "lat": 59.41151,
    "lon": 24.664476,
    "brand_name": "NESTE",
    "brand_id": 188,
    "name": "Kadaka",
    "city": "Tallinn",
    "address": "Kadaka tee 60",
    "distance": 9.395827393856463
  },
  {
    "id": 60931,
    "lat": 59.424171,
    "lon": 24.646669,
    "brand_name": "Circle K",
    "brand_id": 186,
    "name": "Õismäe",
    "city": "Tallinn",
    "address": "Haabersti LO, Paldiski mnt 106",
    "distance": 8.723304490174522
  },
  {
    "id": 64271,
    "lat": 59.450077,
    "lon": 24.603277,
    "brand_name": "Alexela",
    "brand_id": 214,
    "name": "Kakumäe sadamatankla (Harbour station)",
    "city": "Tallinn",
    "address": "Lesta tn 16",
    "distance": 8.070150280811879
  },
  {
    "id": 64211,
    "lat": 59.424782,
    "lon": 24.64986,
    "brand_name": "Alexela",
    "brand_id": 214,
    "name": "Rocca Al Mare tankla",
    "city": "Tallinn",
    "address": "Paldiski mnt 102",
    "distance": 8.915974560370381
  },
  {
    "id": 61000,
    "lat": 59.310104,
    "lon": 24.833427,
    "brand_name": "Circle K",
    "brand_id": 186,
    "name": "Kiili Automaat",
    "city": "Kiili",
    "address": "Vaela tee 6",
    "distance": 66.8693013680451
  },
  {
    "id": 64289,
    "lat": 59.362244,
    "lon": 24.76384,
    "brand_name": "Alexela",
    "brand_id": 214,
    "name": "Raudalu tankla",
    "city": "Tallinn",
    "address": "Viljandi mnt 36a",
    "distance": 41.90262924469816
  },
  {
    "id": 60964,
    "lat": 59.400829,
    "lon": 24.69556,
    "brand_name": "Circle K",
    "brand_id": 186,
    "name": "Sütiste",
    "city": "Tallinn",
    "address": "Mustamäe LO, Sütiste tee 1",
    "distance": 17.232184477191154
  },
  {
    "id": 60945,
    "lat": 59.39167,
    "lon": 24.72167,
    "brand_name": "Circle K",
    "brand_id": 186,
    "name": "Nõmme",
    "city": "Tallinn",
    "address": "Nõmme LO, Männiku tee 2",
    "distance": 44.070573712782874
  },
  {
    "id": 61769,
    "lat": 59.409939,
    "lon": 24.675447,
    "brand_name": "Olerex",
    "brand_id": 198,
    "name": "Tallinn Laki tankla",
    "city": "Tallinn",
    "address": "Laki 29",
    "distance": 9.99067474262602
  },
  {
    "id": 61006,
    "lat": 59.392799,
    "lon": 24.722889,
    "brand_name": "Circle K",
    "brand_id": 186,
    "name": "Järve Automaat",
    "city": "Tallinn",
    "address": "Nõmme LO, Pärnu mnt 236",
    "distance": 43.998390263347325
  },
  {
    "id": 60968,
    "lat": 59.408329,
    "lon": 24.68639,
    "brand_name": "Circle K",
    "brand_id": 186,
    "name": "Tammsaare",
    "city": "Tallinn",
    "address": "Mustamäe LO, A.H.Tammsaare tee 112",
    "distance": 17.773165147999546
  },
  {
    "id": 61728,
    "lat": 59.359245,
    "lon": 24.874195,
    "brand_name": "Olerex",
    "brand_id": 198,
    "name": "Jüri tankla",
    "city": "Jüri",
    "address": "Viadukti põik 6",
    "distance": 63.92211956380346
  },
  {
    "id": 61809,
    "lat": 59.360622,
    "lon": 24.869535,
    "brand_name": "Terminal",
    "brand_id": 199,
    "name": "Jüri",
    "city": "Lehmja",
    "address": "Bensiinijaama tee",
    "distance": 64.17345986889985
  },
  {
    "id": 64204,
    "lat": 59.356533,
    "lon": 24.892525,
    "brand_name": "Alexela",
    "brand_id": 214,
    "name": "Jüri tankla",
    "city": "Jüri",
    "address": "Ringi tee 1",
    "distance": 91.17196325175
  },
  {
    "id": 64264,
    "lat": 59.359043,
    "lon": 24.890127,
    "brand_name": "Alexela",
    "brand_id": 214,
    "name": "Jüri Põrguvälja tankla",
    "city": "Rae vald",
    "address": "Põrguvälja tee 2",
    "distance": 91.28979497350579
  },
  {
    "id": 61020,
    "lat": 59.358566,
    "lon": 24.893494,
    "brand_name": "NESTE",
    "brand_id": 188,
    "name": "Harjumaa",
    "city": "Jüri",
    "address": "Uus-Ringi tee 1",
    "distance": 91.10272982448075
  },
  {
    "id": 60940,
    "lat": 59.358772,
    "lon": 24.893894,
    "brand_name": "Circle K",
    "brand_id": 186,
    "name": "Jüri",
    "city": "Jüri",
    "address": "Uus-Ringi tee 3",
    "distance": 91.07864325928095
  },
  {
    "id": 61775,
    "lat": 59.40192,
    "lon": 24.709904,
    "brand_name": "Olerex",
    "brand_id": 198,
    "name": "Tallinn Tammsaare tankla",
    "city": "Tallinn",
    "address": "Tammsaare tee 53a",
    "distance": 44.72064398109357
  },
  {
    "id": 61042,
    "lat": 59.402687,
    "lon": 24.712639,
    "brand_name": "NESTE",
    "brand_id": 188,
    "name": "Tondi",
    "city": "Tallinn",
    "address": "Tammsaare tee 64 a",
    "distance": 44.565838107950384
  },
  {
    "id": 61019,
    "lat": 59.402145,
    "lon": 24.729887,
    "brand_name": "NESTE",
    "brand_id": 188,
    "name": "Tallinn",
    "city": "Tallinn",
    "address": "Pärnu maantee 141",
    "distance": 43.58959894539188
  },
  {
    "id": 60937,
    "lat": 59.40556,
    "lon": 24.69972,
    "brand_name": "Circle K",
    "brand_id": 186,
    "name": "Mustamäe",
    "city": "Tallinn",
    "address": "Mustamäe LO, Sipelga tn 1",
    "distance": 17.00652802203141
  },
  {
    "id": 60978,
    "lat": 59.402508,
    "lon": 24.728662,
    "brand_name": "Circle K",
    "brand_id": 186,
    "name": "Järve",
    "city": "Tallinn",
    "address": "Kristiine LO, Pärnu mnt 180",
    "distance": 43.65891102109338
  },
  {
    "id": 61077,
    "lat": 59.409939,
    "lon": 24.701241,
    "brand_name": "NESTE",
    "brand_id": 188,
    "name": "Tallinn",
    "city": "Tallinn",
    "address": "Sorpruse puiestee 178",
    "distance": 16.94425173578861
  },
  {
    "id": 61040,
    "lat": 59.412552,
    "lon": 24.70759,
    "brand_name": "NESTE",
    "brand_id": 188,
    "name": "Tallinn",
    "city": "Tallinn",
    "address": "Sopruse pueistee 155",
    "distance": 16.60688910642822
  },
  {
    "id": 61806,
    "lat": 59.412842,
    "lon": 24.7087,
    "brand_name": "Olerex",
    "brand_id": 198,
    "name": "Tallinn Linnu tee tankla",
    "city": "Tallinn",
    "address": "Linnu tee 64",
    "distance": 44.80381208164278
  },
  {
    "id": 60999,
    "lat": 59.33316,
    "lon": 25.32802,
    "brand_name": "Circle K",
    "brand_id": 186,
    "name": "Kehra Automaat",
    "city": "Kehra",
    "address": "Keskuse tn 6",
    "distance": 95.02067564527533
  },
  {
    "id": 60959,
    "lat": 59.179188,
    "lon": 25.761131,
    "brand_name": "Circle K",
    "brand_id": 186,
    "name": "Aravete",
    "city": "Aravete",
    "address": "Karikakra, Märjandi küla",
    "distance": 74.51199415945396
  },
  {
    "id": 61010,
    "lat": 59.402149,
    "lon": 24.917242,
    "brand_name": "Premium7",
    "brand_id": 187,
    "name": "Harjumaa, Lagedi",
    "city": "Lagedi",
    "address": "Killustiku 4",
    "distance": 89.58393803632664
  },
  {
    "id": 64280,
    "lat": 59.298069,
    "lon": 25.61582,
    "brand_name": "Alexela",
    "brand_id": 214,
    "name": "Aegviidu tankla",
    "city": "Anija vald",
    "address": "Kosenõmme tn 17",
    "distance": 79.27923753752427
  },
  {
    "id": 61770,
    "lat": 59.401283,
    "lon": 24.815765,
    "brand_name": "Olerex",
    "brand_id": 198,
    "name": "Peetri tankla",
    "city": "Peetri",
    "address": "Tartu mnt 169",
    "distance": 67.02902100206562
  },
  {
    "id": 60961,
    "lat": 59.403973,
    "lon": 24.809851,
    "brand_name": "Circle K",
    "brand_id": 186,
    "name": "Peetri",
    "city": "Peetri",
    "address": "Peetri alevik, Raudkivi tee 1",
    "distance": 67.36241239820365
  },
  {
    "id": 64504,
    "lat": 59.415527,
    "lon": 24.863491,
    "brand_name": "Метанстанция",
    "brand_id": 19,
    "name": "Eesti Gaas Tallinn Suur-Sõjamäe",
    "city": "Tallinn",
    "address": "Suur-Sõjamäe 56a",
    "distance": 64.33726517670677
  },
  {
    "id": 61764,
    "lat": 59.424366,
    "lon": 24.853394,
    "brand_name": "Olerex",
    "brand_id": 198,
    "name": "Tallinn Betooni automaattankla",
    "city": "Tallinn",
    "address": "Betooni 3",
    "distance": 64.93356774321624
  },
  {
    "id": 61078,
    "lat": 59.42189,
    "lon": 24.822651,
    "brand_name": "NESTE",
    "brand_id": 188,
    "name": "Tallinn",
    "city": "Tallinn",
    "address": "Suur-Sojamäe 35 c",
    "distance": 66.66338593672046
  },
  {
    "id": 61050,
    "lat": 59.420738,
    "lon": 24.791372,
    "brand_name": "NESTE",
    "brand_id": 188,
    "name": "Ülemiste",
    "city": "Tallinn",
    "address": "Suur-Sõjamäe 4/2a",
    "distance": 68.4287263178133
  },
  {
    "id": 61776,
    "lat": 59.414776,
    "lon": 24.738464,
    "brand_name": "Olerex",
    "brand_id": 198,
    "name": "Tallinn Tondi tankla",
    "city": "Tallinn",
    "address": "Tondi 6",
    "distance": 43.12676105997709
  },
  {
    "id": 61768,
    "lat": 59.43153,
    "lon": 24.917528,
    "brand_name": "Olerex",
    "brand_id": 198,
    "name": "Tallinn Lagedi automaattankla",
    "city": "Tallinn",
    "address": "Lagedi tee 26",
    "distance": 89.59719788466161
  },
  {
    "id": 64506,
    "lat": 59.417847,
    "lon": 24.748531,
    "brand_name": "Метанстанция",
    "brand_id": 19,
    "name": "Eesti Gaas Tallinn Tehnika",
    "city": "Tallinn",
    "address": "Tehnika 150",
    "distance": 42.57011793917566
  },
  {
    "id": 64505,
    "lat": 59.428806,
    "lon": 24.855066,
    "brand_name": "Метанстанция",
    "brand_id": 19,
    "name": "Eesti Gaas Tallinn Gaasi",
    "city": "Tallinn",
    "address": "Gaasi 5",
    "distance": 64.85728535399821
  },
  {
    "id": 60932,
    "lat": 59.422779,
    "lon": 24.78639,
    "brand_name": "Circle K",
    "brand_id": 186,
    "name": "Järvevana",
    "city": "Tallinn",
    "address": "Kesklinna LO, Järvevana tee 2",
    "distance": 68.71640601323249
  },
  {
    "id": 61080,
    "lat": 59.426788,
    "lon": 24.822855,
    "brand_name": "NESTE",
    "brand_id": 188,
    "name": "Vesse",
    "city": "Tallinn",
    "address": "Peterburi tee 52",
    "distance": 66.66909190722349
  },
  {
    "id": 61008,
    "lat": 59.423737,
    "lon": 24.787411,
    "brand_name": "Circle K",
    "brand_id": 186,
    "name": "Tallinn",
    "city": "Tallinn",
    "address": "Ülemiste 1",
    "distance": 68.66168270599853
  },
  {
    "id": 61771,
    "lat": 59.426189,
    "lon": 24.810574,
    "brand_name": "Olerex",
    "brand_id": 198,
    "name": "Tallinn Peterburi mnt tankla",
    "city": "Tallinn",
    "address": "Peterburi tee 38/4",
    "distance": 67.36095015564784
  },
  {
    "id": 64216,
    "lat": 59.42828,
    "lon": 24.832239,
    "brand_name": "Alexela",
    "brand_id": 214,
    "name": "Vesse tankla",
    "city": "Tallinn",
    "address": "Vesse tn 2",
    "distance": 66.14491672364362
  },
  {
    "id": 60963,
    "lat": 59.429169,
    "lon": 24.837219,
    "brand_name": "Circle K",
    "brand_id": 186,
    "name": "Peterburi Mnt",
    "city": "Tallinn",
    "address": "Lasnamäe LO, Peterburi tee 58a",
    "distance": 65.86736612845584
  },
  {
    "id": 61780,
    "lat": 59.253384,
    "lon": 25.975084,
    "brand_name": "Olerex",
    "brand_id": 198,
    "name": "Tapa tankla",
    "city": "Tapa",
    "address": "Pikk 70",
    "distance": 88.02204132029706
  },
  {
    "id": 64256,
    "lat": 59.261017,
    "lon": 25.963703,
    "brand_name": "Alexela",
    "brand_id": 214,
    "name": "Tapa tankla",
    "city": "Tapa vald",
    "address": "Pikk tn 16",
    "distance": 88.4947144550773
  },
  {
    "id": 84166,
    "lat": 59.111374,
    "lon": 26.237043,
    "brand_name": "Terminal",
    "brand_id": 199,
    "name": "Kaarma",
    "city": "Ebavere",
    "address": "Ebavere küla",
    "distance": 78.63664736110243
  },
  {
    "id": 64220,
    "lat": 59.448364,
    "lon": 25.435211,
    "brand_name": "Alexela",
    "brand_id": 214,
    "name": "Kuusalu tankla",
    "city": "Kuusalu vald",
    "address": "Kuusalu tee 50",
    "distance": 88.66936495111172
  },
  {
    "id": 61011,
    "lat": 59.346401,
    "lon": 26.125299,
    "brand_name": "Premium7",
    "brand_id": 187,
    "name": "Kadrina tankla",
    "city": "Kadrina",
    "address": "Lääne-Virumaa",
    "distance": 78.09979132852816
  },
  {
    "id": 64196,
    "lat": 59.452438,
    "lon": 25.385088,
    "brand_name": "Terminal",
    "brand_id": 199,
    "name": "Kiiu",
    "city": "Kiiu",
    "address": "Vana-Narva mnt 7",
    "distance": 91.52149751939217
  },
  {
    "id": 61724,
    "lat": 59.440956,
    "lon": 25.13756,
    "brand_name": "Olerex",
    "brand_id": 198,
    "name": "Jõelähtme tankla",
    "city": "Jõelähtme",
    "address": "Kivisilla tee 1",
    "distance": 77.20441907134233
  },
  {
    "id": 61751,
    "lat": 59.320072,
    "lon": 26.369736,
    "brand_name": "Olerex",
    "brand_id": 198,
    "name": "Rakvere Piira tankla",
    "city": "Rakvere",
    "address": "Piira",
    "distance": 92.81051102458653
  },
  {
    "id": 64224,
    "lat": 59.442806,
    "lon": 24.928885,
    "brand_name": "Alexela",
    "brand_id": 214,
    "name": "Loo tankla",
    "city": "Loo",
    "address": "Niidu tee 2",
    "distance": 88.99868427766835
  },
  {
    "id": 61740,
    "lat": 59.470554,
    "lon": 25.016323,
    "brand_name": "Olerex",
    "brand_id": 198,
    "name": "Maardu tankla",
    "city": "Maardu",
    "address": "Keemikute 1",
    "distance": 84.25710246250388
  },
  {
    "id": 64301,
    "lat": 59.4408,
    "lon": 24.897907,
    "brand_name": "Alexela",
    "brand_id": 214,
    "name": "Väo tankla",
    "city": "Tallinn",
    "address": "Tooma 1",
    "distance": 90.73966706713102
  },
  {
    "id": 60993,
    "lat": 59.449059,
    "lon": 24.921524,
    "brand_name": "Circle K",
    "brand_id": 186,
    "name": "Iru Automaat",
    "city": "Iru",
    "address": "Ämma tee 79",
    "distance": 89.44588883534732
  },
  {
    "id": 61045,
    "lat": 59.437229,
    "lon": 24.874168,
    "brand_name": "NESTE",
    "brand_id": 188,
    "name": "Tallinn",
    "city": "Tallinn",
    "address": "Peterburi tee 99",
    "distance": 63.823881430660755
  },
  {
    "id": 84168,
    "lat": 59.437145,
    "lon": 24.870781,
    "brand_name": "Terminal",
    "brand_id": 199,
    "name": "Mustakivi",
    "city": "Tallinn",
    "address": "Osmussaare 15",
    "distance": 64.01456106445889
  },
  {
    "id": 61079,
    "lat": 59.446045,
    "lon": 24.897186,
    "brand_name": "NESTE",
    "brand_id": 188,
    "name": "Laagna",
    "city": "Tallinn",
    "address": "Ümera 35",
    "distance": 90.80439246832519
  },
  {
    "id": 64205,
    "lat": 59.432037,
    "lon": 24.849548,
    "brand_name": "Alexela",
    "brand_id": 214,
    "name": "Peterburi tee tankla",
    "city": "Tallinn",
    "address": "Peterburi tee 77",
    "distance": 65.18462269257135
  },
  {
    "id": 64255,
    "lat": 59.346397,
    "lon": 26.362831,
    "brand_name": "Alexela",
    "brand_id": 214,
    "name": "Rakvere tankla",
    "city": "Rakvere",
    "address": "Lai tn 23",
    "distance": 92.9306359151889
  },
  {
    "id": 60956,
    "lat": 59.442219,
    "lon": 24.87528,
    "brand_name": "Circle K",
    "brand_id": 186,
    "name": "Mustakivi",
    "city": "Tallinn",
    "address": "Lasnamäe LO, Mahtra tn 29/1",
    "distance": 92.0239647614928
  },
  {
    "id": 61063,
    "lat": 59.345703,
    "lon": 26.367117,
    "brand_name": "NESTE",
    "brand_id": 188,
    "name": "Rakvere",
    "city": "Rakvere",
    "address": "Laada 24",
    "distance": 92.6943400349185
  },
  {
    "id": 61802,
    "lat": 59.345242,
    "lon": 26.368332,
    "brand_name": "Olerex",
    "brand_id": 198,
    "name": "Rakvere Rägavere tee 2 tankla",
    "city": "Rakvere",
    "address": "Rägavere tee 2",
    "distance": 92.6296261994064
  },
  {
    "id": 61753,
    "lat": 59.337769,
    "lon": 26.386189,
    "brand_name": "Olerex",
    "brand_id": 198,
    "name": "Rakvere Rägavere tee 50 tankla",
    "city": "Rakvere",
    "address": "Rägavere tee 50",
    "distance": 91.68936704066049
  },
  {
    "id": 64513,
    "lat": 59.340599,
    "lon": 26.381121,
    "brand_name": "Метанстанция",
    "brand_id": 19,
    "name": "Eesti Gaas Rakvere",
    "city": "Rakvere",
    "address": "Rägavere tee 47A",
    "distance": 91.94869001144488
  },
  {
    "id": 61752,
    "lat": 59.362148,
    "lon": 26.334885,
    "brand_name": "Olerex",
    "brand_id": 198,
    "name": "Rakvere Põhjakeskuse tankla",
    "city": "Rakvere",
    "address": "Haljala tee 17",
    "distance": 94.39427445115727
  },
  {
    "id": 60973,
    "lat": 59.355026,
    "lon": 26.388206,
    "brand_name": "Circle K",
    "brand_id": 186,
    "name": "Rakvere Näpi",
    "city": "Rakvere",
    "address": "Kütuse tn 18A",
    "distance": 91.42721868098741
  },
  {
    "id": 64293,
    "lat": 59.354881,
    "lon": 26.390156,
    "brand_name": "Alexela",
    "brand_id": 214,
    "name": "Rakvere Näpi tankla",
    "city": "Rakvere",
    "address": "Kütuse tn 18",
    "distance": 91.31803341192092
  },
  {
    "id": 60939,
    "lat": 59.366074,
    "lon": 26.338217,
    "brand_name": "Circle K",
    "brand_id": 186,
    "name": "Rakvere Väljavahi",
    "city": "Rakvere",
    "address": "Tõrremäe küla, Haljala tee 6",
    "distance": 94.18183239875913
  },
  {
    "id": 64258,
    "lat": 59.365314,
    "lon": 26.43298,
    "brand_name": "Alexela",
    "brand_id": 214,
    "name": "Sõmeru tankla",
    "city": "Sõmeru",
    "address": "Puiestee tn 22",
    "distance": 88.82488417856034
  },
  {
    "id": 61062,
    "lat": 59.421719,
    "lon": 26.28017,
    "brand_name": "NESTE",
    "brand_id": 188,
    "name": "Haljala",
    "city": "Haljala",
    "address": "Metsvindi tee 1B",
    "distance": 97.34328387423066
  },
  {
    "id": 60957,
    "lat": 59.426495,
    "lon": 26.269192,
    "brand_name": "Circle K",
    "brand_id": 186,
    "name": "Haljala",
    "city": "Haljala",
    "address": "Rakvere mnt 26",
    "distance": 97.97186652942037
  },
  {
    "id": 84163,
    "lat": 59.494186,
    "lon": 26.511793,
    "brand_name": "Terminal",
    "brand_id": 199,
    "name": "Kunda",
    "city": "Kunda",
    "address": "Selja tee 11",
    "distance": 84.76723034041375
  },
  {
    "id": 61732,
    "lat": 59.495682,
    "lon": 26.516754,
    "brand_name": "Olerex",
    "brand_id": 198,
    "name": "Kunda tankla",
    "city": "Kunda",
    "address": "Selja tee 7",
    "distance": 84.50791465644038
  },
  {
    "id": 61731,
    "lat": 59.364635,
    "lon": 26.968065,
    "brand_name": "Olerex",
    "brand_id": 198,
    "name": "Kiviõli tankla",
    "city": "Kiviõli",
    "address": "Vabaduse pst 25",
    "distance": 58.57245494139649
  },
  {
    "id": 61718,
    "lat": 59.438824,
    "lon": 26.808401,
    "brand_name": "Olerex",
    "brand_id": 198,
    "name": "Aseri tankla",
    "city": "Aseri",
    "address": "Aia 2",
    "distance": 67.54639910922292
  },
  {
    "id": 64257,
    "lat": 59.500191,
    "lon": 26.537664,
    "brand_name": "Alexela",
    "brand_id": 214,
    "name": "Kunda tankla",
    "city": "Viru-Nigula vald",
    "address": "Jaama tn 16",
    "distance": 83.39565226857947
  },
  {
    "id": 61714,
    "lat": 59.324818,
    "lon": 27.433615,
    "brand_name": "Olerex",
    "brand_id": 198,
    "name": "Ahtme tankla",
    "city": "Johvi",
    "address": "Altserva 1a",
    "distance": 33.16536240711502
  },
  {
    "id": 61073,
    "lat": 59.336601,
    "lon": 27.420471,
    "brand_name": "NESTE",
    "brand_id": 188,
    "name": "Ahtme",
    "city": "Jõhvi",
    "address": "Puru tee 81",
    "distance": 33.581807114867765
  },
  {
    "id": 60979,
    "lat": 59.351177,
    "lon": 27.408138,
    "brand_name": "Circle K",
    "brand_id": 186,
    "name": "Jõhvi Tartu Mnt",
    "city": "Jõhvi",
    "address": "Tartu mnt 26",
    "distance": 33.96176922650915
  },
  {
    "id": 61726,
    "lat": 59.352882,
    "lon": 27.410444,
    "brand_name": "Olerex",
    "brand_id": 198,
    "name": "Jõhvi automaattankla",
    "city": "Jõhvi",
    "address": "Tartu mnt 15b",
    "distance": 33.802102410376584
  },
  {
    "id": 84158,
    "lat": 59.351406,
    "lon": 27.419249,
    "brand_name": "Terminal",
    "brand_id": 199,
    "name": "Jõhvi",
    "city": "Jõhvi",
    "address": "Puru tee 5b",
    "distance": 33.336447948972705
  },
  {
    "id": 61072,
    "lat": 59.3647,
    "lon": 27.399099,
    "brand_name": "NESTE",
    "brand_id": 188,
    "name": "Johvi",
    "city": "Johvi",
    "address": "Ristiku tee 2 c",
    "distance": 34.255888002511085
  },
  {
    "id": 60965,
    "lat": 59.367485,
    "lon": 27.393801,
    "brand_name": "Circle K",
    "brand_id": 186,
    "name": "Jõhvi Tallinna Mnt",
    "city": "Jõhvi",
    "address": "Rakvere tn 40",
    "distance": 34.518793792756895
  },
  {
    "id": 64254,
    "lat": 59.367958,
    "lon": 27.391949,
    "brand_name": "Alexela",
    "brand_id": 214,
    "name": "Jõhvi tankla",
    "city": "Jõhvi",
    "address": "Rakvere 44",
    "distance": 34.61740653677643
  },
  {
    "id": 64514,
    "lat": 59.3666,
    "lon": 27.416546,
    "brand_name": "Метанстанция",
    "brand_id": 19,
    "name": "Eesti Gaas Jõhvi",
    "city": "Jõhvi",
    "address": "Jaama 53A",
    "distance": 33.24937864179592
  },
  {
    "id": 60976,
    "lat": 59.36261,
    "lon": 27.462147,
    "brand_name": "Circle K",
    "brand_id": 186,
    "name": "Jõhvi Narva Mnt",
    "city": "Jõhvi",
    "address": "Narva mnt 147",
    "distance": 30.74314524785903
  },
  {
    "id": 64253,
    "lat": 59.402359,
    "lon": 27.297689,
    "brand_name": "Alexela",
    "brand_id": 214,
    "name": "Kohtla-Järve tankla",
    "city": "Kohtla-Järve",
    "address": "Järveküla tee 70",
    "distance": 39.75205762690699
  },
  {
    "id": 61798,
    "lat": 59.400436,
    "lon": 27.336552,
    "brand_name": "Olerex",
    "brand_id": 198,
    "name": "Kukruse automaattankla",
    "city": "Paate",
    "address": "Paate 2",
    "distance": 37.55264158202751
  },
  {
    "id": 60991,
    "lat": 59.400471,
    "lon": 27.336637,
    "brand_name": "Circle K",
    "brand_id": 186,
    "name": "Paate",
    "city": "Paate",
    "address": "Paate 2",
    "distance": 37.54781808930987
  },
  {
    "id": 60985,
    "lat": 59.410004,
    "lon": 27.27807,
    "brand_name": "Circle K",
    "brand_id": 186,
    "name": "Kohtla-Järve",
    "city": "Kohtla-Järve",
    "address": "Kalevi tn 43",
    "distance": 40.87215705624638
  },
  {
    "id": 61025,
    "lat": 59.409721,
    "lon": 27.309856,
    "brand_name": "Terminal",
    "brand_id": 199,
    "name": "Kohtla-Järve",
    "city": "Järve",
    "address": "Töökoja alajaam",
    "distance": 39.07325133195749
  },
  {
    "id": 61803,
    "lat": 59.390984,
    "lon": 27.773367,
    "brand_name": "Olerex",
    "brand_id": 198,
    "name": "Sillamäe tankla",
    "city": "Sillamäe",
    "address": "Tallinna mnt 9",
    "distance": 12.868885572671372
  },
  {
    "id": 61074,
    "lat": 59.390923,
    "lon": 27.775591,
    "brand_name": "NESTE",
    "brand_id": 188,
    "name": "Sillamäe",
    "city": "Sillamäe",
    "address": "Tallinna maantee 9 b",
    "distance": 12.743919690537325
  },
  {
    "id": 64261,
    "lat": 59.376671,
    "lon": 28.151646,
    "brand_name": "Alexela",
    "brand_id": 214,
    "name": "Narva LPG tankla",
    "city": "Ida-Virumaa",
    "address": "Lääne 6 (endine Rahu 7A)",
    "distance": 8.96977951788034
  },
  {
    "id": 61076,
    "lat": 59.36533,
    "lon": 28.186081,
    "brand_name": "NESTE",
    "brand_id": 188,
    "name": "Narva",
    "city": "Narva",
    "address": "26 Juuli 1 a",
    "distance": 11.221061451757574
  },
  {
    "id": 60952,
    "lat": 59.384239,
    "lon": 28.157143,
    "brand_name": "Circle K",
    "brand_id": 186,
    "name": "Narva Linnapiiri",
    "city": "Narva",
    "address": "Tallinna mnt 64",
    "distance": 9.06774953871418
  },
  {
    "id": 64511,
    "lat": 59.385818,
    "lon": 28.154434,
    "brand_name": "Метанстанция",
    "brand_id": 19,
    "name": "Eesti Gaas Narva",
    "city": "Narva",
    "address": "Tallinna mnt 81",
    "distance": 8.884303504023999
  },
  {
    "id": 61800,
    "lat": 59.384838,
    "lon": 28.15801,
    "brand_name": "Olerex",
    "brand_id": 198,
    "name": "Narva tankla",
    "city": "Narva",
    "address": "Tallinna mnt 73",
    "distance": 9.103316011242834
  },
  {
    "id": 61075,
    "lat": 59.382313,
    "lon": 28.168928,
    "brand_name": "NESTE",
    "brand_id": 188,
    "name": "Narva",
    "city": "Narva",
    "address": "Tallinna maantee 55 a",
    "distance": 9.764420482027436
  },
  {
    "id": 64252,
    "lat": 59.381367,
    "lon": 28.173243,
    "brand_name": "Alexela",
    "brand_id": 214,
    "name": "Narva tankla",
    "city": 20605,
    "address": "Tallinna mnt 43",
    "distance": 10.025193687770123
  },
  {
    "id": 60935,
    "lat": 59.380371,
    "lon": 28.177279,
    "brand_name": "Circle K",
    "brand_id": 186,
    "name": "Narva Kesklinna",
    "city": "Narva",
    "address": "Tallinna mnt 37",
    "distance": 10.271934553156683
  },
  {
    "id": 64940,
    "lat": 59.462662,
    "lon": 28.04401,
    "brand_name": "Terminal",
    "brand_id": 199,
    "name": "Narva-Jõesuu",
    "city": "Narva-Jõesuu",
    "address": "J. Poska tn 26",
    "distance": 7.3988408923850635
  },
  {
    "id": 64302,
    "lat": 59.464157,
    "lon": 28.043913,
    "brand_name": "Alexela",
    "brand_id": 214,
    "name": "Narva-Jõesuu sadamatankla (Harbour station)",
    "city": "Narva-Jõesuu",
    "address": "Suur-Lootsi 4",
    "distance": 7.553649056832985
  },
  {
    "id": 61034,
    "lat": 59.427212,
    "lon": 24.662069,
    "brand_name": "NESTE",
    "brand_id": 188,
    "name": "Tallinn",
    "city": "Tallinn",
    "address": "Paldiski maantee 98",
    "distance": 9.656190161813651
  },
  {
    "id": 64213,
    "lat": 59.416569,
    "lon": 24.692312,
    "brand_name": "Alexela",
    "brand_id": 214,
    "name": "Mustamäe tee tankla",
    "city": "Tallinn",
    "address": "Mustamäe tee 46",
    "distance": 17.508921764636586
  },
  {
    "id": 61036,
    "lat": 59.418697,
    "lon": 24.693424,
    "brand_name": "NESTE",
    "brand_id": 188,
    "name": "Mustamäe tee",
    "city": "Tallinn",
    "address": "Mustamäe tee 22",
    "distance": 17.47238517878399
  },
  {
    "id": 64206,
    "lat": 59.423252,
    "lon": 24.695646,
    "brand_name": "Alexela",
    "brand_id": 214,
    "name": "Marja tankla",
    "city": "Tallinn",
    "address": "Marja tn 3",
    "distance": 17.41435593381204
  },
  {
    "id": 87137,
    "lat": 59.424301,
    "lon": 24.6987,
    "brand_name": "Бензиностанция",
    "brand_id": 20,
    "name": "Jetoil Eco Tankla Mustamäe",
    "city": "Tallinn",
    "address": "Mustamäe tee 12c",
    "distance": 17.261115238536618
  },
  {
    "id": 61038,
    "lat": 59.422886,
    "lon": 24.699213,
    "brand_name": "NESTE",
    "brand_id": 188,
    "name": "Marja",
    "city": "Tallinn",
    "address": "Mustamäe tee 39",
    "distance": 17.208825116503576
  },
  {
    "id": 61039,
    "lat": 59.429527,
    "lon": 24.70018,
    "brand_name": "NESTE",
    "brand_id": 188,
    "name": "Merimetsa",
    "city": "Tallinn",
    "address": "Paldiski maantee 54",
    "distance": 17.278067485690485
  },
  {
    "id": 61773,
    "lat": 59.445251,
    "lon": 24.701605,
    "brand_name": "Olerex",
    "brand_id": 198,
    "name": "Tallinn Sõle tankla",
    "city": "Tallinn",
    "address": "Sõle 51b",
    "distance": 17.612702395027068
  },
  {
    "id": 61007,
    "lat": 59.45369,
    "lon": 24.705462,
    "brand_name": "Circle K",
    "brand_id": 186,
    "name": "Tööstuse Automaat",
    "city": "Tallinn",
    "address": "Tööstuse tn 101",
    "distance": 17.695931568301752
  },
  {
    "id": 64306,
    "lat": 59.438499,
    "lon": 24.707876,
    "brand_name": "Alexela",
    "brand_id": 214,
    "name": "Sõle tankla",
    "city": "Tallinn",
    "address": "Sõle tn 27a",
    "distance": 17.07110479011741
  },
  {
    "id": 61041,
    "lat": 59.43816,
    "lon": 24.708321,
    "brand_name": "NESTE",
    "brand_id": 188,
    "name": "Tallinn",
    "city": "Tallinn",
    "address": "Sole 25 a",
    "distance": 17.037407491869438
  },
  {
    "id": 60944,
    "lat": 59.432686,
    "lon": 24.714478,
    "brand_name": "Circle K",
    "brand_id": 186,
    "name": "Sõle",
    "city": "Tallinn",
    "address": "Põhja-Tallinna LO, Paldiski mnt 44",
    "distance": 44.58944984361522
  },
  {
    "id": 60975,
    "lat": 59.42778,
    "lon": 24.71917,
    "brand_name": "Circle K",
    "brand_id": 186,
    "name": "Endla",
    "city": "Tallinn",
    "address": "Kristiine LO, Endla tn 52",
    "distance": 44.28666610819465
  },
  {
    "id": 64214,
    "lat": 59.426102,
    "lon": 24.723087,
    "brand_name": "Alexela",
    "brand_id": 214,
    "name": "Kristiine tankla",
    "city": "Tallinn",
    "address": "Tulika tn 33a",
    "distance": 44.053927600584665
  },
  {
    "id": 64298,
    "lat": 59.451077,
    "lon": 24.721577,
    "brand_name": "Alexela",
    "brand_id": 214,
    "name": "Tööstuse tankla",
    "city": "Tallinn",
    "address": "Tööstuse tn 52b",
    "distance": 44.39233163799024
  },
  {
    "id": 60948,
    "lat": 59.427502,
    "lon": 24.72389,
    "brand_name": "Circle K",
    "brand_id": 186,
    "name": "Kristiine",
    "city": "Tallinn",
    "address": "Kristiine LO, Endla tn 43",
    "distance": 44.018276595357676
  },
  {
    "id": 61043,
    "lat": 59.428188,
    "lon": 24.731392,
    "brand_name": "NESTE",
    "brand_id": 188,
    "name": "Suur-Ameerika",
    "city": "Tallinn",
    "address": "Suur-Amerika 49/Koidu 47",
    "distance": 43.59985680568722
  },
  {
    "id": 60988,
    "lat": 59.440571,
    "lon": 24.738199,
    "brand_name": "Circle K",
    "brand_id": 186,
    "name": "Balti Jaam",
    "city": "Tallinn",
    "address": "Põhja-Tallinna LO, Toompuiestee 37",
    "distance": 43.329436172494894
  },
  {
    "id": 64209,
    "lat": 59.420086,
    "lon": 24.742455,
    "brand_name": "Alexela",
    "brand_id": 214,
    "name": "Vana-Lõuna tankla",
    "city": "Tallinn",
    "address": "Vana-Lõuna tn 30",
    "distance": 42.92443941975109
  },
  {
    "id": 61044,
    "lat": 59.444469,
    "lon": 24.743469,
    "brand_name": "NESTE",
    "brand_id": 188,
    "name": "Põhja pst",
    "city": "Tallinn",
    "address": "Pohja puiestee 17",
    "distance": 43.07817058950259
  },
  {
    "id": 60982,
    "lat": 59.444145,
    "lon": 24.752287,
    "brand_name": "Circle K",
    "brand_id": 186,
    "name": "Linnahalli",
    "city": "Tallinn",
    "address": "Põhja-Tallinna LO, Põhja pst 33",
    "distance": 42.578765939881066
  },
  {
    "id": 60990,
    "lat": 59.429153,
    "lon": 24.758781,
    "brand_name": "Circle K",
    "brand_id": 186,
    "name": "Juhkentali Automat",
    "city": "Tallinn",
    "address": "Juhkentali 3 g",
    "distance": 42.06189802864144
  },
  {
    "id": 61762,
    "lat": 59.439716,
    "lon": 24.759378,
    "brand_name": "Olerex",
    "brand_id": 198,
    "name": "Tallinn Ahtri tankla",
    "city": "Tallinn",
    "address": "Ahtri 6B",
    "distance": 42.128589569712254
  },
  {
    "id": 64291,
    "lat": 59.444721,
    "lon": 24.762087,
    "brand_name": "Alexela",
    "brand_id": 214,
    "name": "Vanasadama sadamatankla (Harbour station)",
    "city": "Tallinn",
    "address": "Sadama tn 25",
    "distance": 42.03538507021338
  },
  {
    "id": 61047,
    "lat": 59.427334,
    "lon": 24.770508,
    "brand_name": "NESTE",
    "brand_id": 188,
    "name": "Tallinn",
    "city": "Tallinn",
    "address": "Juhkentali 37",
    "distance": 41.38620757478957
  },
  {
    "id": 60980,
    "lat": 59.440437,
    "lon": 24.775988,
    "brand_name": "Circle K",
    "brand_id": 186,
    "name": "Petrooleumi",
    "city": "Tallinn",
    "address": "Kesklinna LO, Petrooleumi tn 4",
    "distance": 69.38606551883379
  },
  {
    "id": 60933,
    "lat": 59.424171,
    "lon": 24.78389,
    "brand_name": "Circle K",
    "brand_id": 186,
    "name": "Sikupilli",
    "city": "Tallinn",
    "address": "Kesklinna LO, Tartu mnt 86",
    "distance": 68.86221110111146
  },
  {
    "id": 64210,
    "lat": 59.425213,
    "lon": 24.784096,
    "brand_name": "Alexela",
    "brand_id": 214,
    "name": "Sikupilli tankla",
    "city": "Tallinn",
    "address": "Tartu mnt 87b",
    "distance": 68.85418672845441
  },
  {
    "id": 60971,
    "lat": 59.425282,
    "lon": 24.79306,
    "brand_name": "Circle K",
    "brand_id": 186,
    "name": "Katusepapi",
    "city": "Tallinn",
    "address": "Lasnamäe LO, Katusepapi tn 37",
    "distance": 68.34761451747823
  },
  {
    "id": 61805,
    "lat": 59.436237,
    "lon": 24.809122,
    "brand_name": "Olerex",
    "brand_id": 198,
    "name": "Tallinn Laagna tankla",
    "city": "Tallinn",
    "address": "Laagna Tee 13",
    "distance": 67.49048701500837
  },
  {
    "id": 60951,
    "lat": 59.435829,
    "lon": 24.81056,
    "brand_name": "Circle K",
    "brand_id": 186,
    "name": "Võidujooksu",
    "city": "Tallinn",
    "address": "Lasnamäe LO, Võidujooksu tn 10",
    "distance": 67.40700106749429
  },
  {
    "id": 60962,
    "lat": 59.444782,
    "lon": 24.815935,
    "brand_name": "Circle K",
    "brand_id": 186,
    "name": "Lauluväljaku",
    "city": "Tallinn",
    "address": "Lasnamäe LO, Narva mnt 138",
    "distance": 67.16102569201851
  },
  {
    "id": 61772,
    "lat": 59.432419,
    "lon": 24.823376,
    "brand_name": "Olerex",
    "brand_id": 198,
    "name": "Tallinn Punane tankla",
    "city": "Tallinn",
    "address": "Punane 16a",
    "distance": 66.66504166371618
  },
  {
    "id": 61054,
    "lat": 59.449009,
    "lon": 24.88748,
    "brand_name": "NESTE",
    "brand_id": 188,
    "name": "Tallinn",
    "city": "Tallinn",
    "address": "Linnamäe 40",
    "distance": 91.36757857397438
  },
  {
    "id": 61056,
    "lat": 59.461521,
    "lon": 24.913834,
    "brand_name": "NESTE",
    "brand_id": 188,
    "name": "Iru",
    "city": "Iru",
    "address": "Narva Mnt 219",
    "distance": 89.95829448081535
  },
  {
    "id": 61804,
    "lat": 59.44352,
    "lon": 24.874741,
    "brand_name": "Olerex",
    "brand_id": 198,
    "name": "Tallinn Kivila tankla",
    "city": "Tallinn",
    "address": "Kivila 28",
    "distance": 92.0601547738598
  },
  {
    "id": 64288,
    "lat": 59.462383,
    "lon": 24.905621,
    "brand_name": "Alexela",
    "brand_id": 214,
    "name": "Pärnamäe tankla",
    "city": "Viimsi vald",
    "address": "Lilleoru tee 2",
    "distance": 90.42752793689904
  },
  {
    "id": 61046,
    "lat": 59.443092,
    "lon": 24.865093,
    "brand_name": "NESTE",
    "brand_id": 188,
    "name": "Tallinn",
    "city": "Tallinn",
    "address": "Mustakivi tee 15",
    "distance": 64.37586756621305
  },
  {
    "id": 61053,
    "lat": 59.45116,
    "lon": 24.861361,
    "brand_name": "NESTE",
    "brand_id": 188,
    "name": "Tallinn",
    "city": "Tallinn",
    "address": "Läänemere tee 2 b",
    "distance": 64.65153532749078
  },
  {
    "id": 61777,
    "lat": 59.451439,
    "lon": 24.854132,
    "brand_name": "Olerex",
    "brand_id": 198,
    "name": "Tallinn Tondiraba tankla",
    "city": "Tallinn",
    "address": "Tondiraba 1",
    "distance": 65.06122333858283
  },
  {
    "id": 61052,
    "lat": 59.434616,
    "lon": 24.831631,
    "brand_name": "NESTE",
    "brand_id": 188,
    "name": "Smuuli",
    "city": "Tallinn",
    "address": "Punane 43",
    "distance": 66.21033766161034
  },
  {
    "id": 64285,
    "lat": 59.440052,
    "lon": 24.830336,
    "brand_name": "Alexela",
    "brand_id": 214,
    "name": "Laagna tee tankla",
    "city": "Tallinn",
    "address": "J. Koorti tn 20",
    "distance": 66.31600073928008
  },
  {
    "id": 61049,
    "lat": 59.46254,
    "lon": 24.826382,
    "brand_name": "NESTE",
    "brand_id": 188,
    "name": "Pirita",
    "city": "Tallinn",
    "address": "Rummu tee 2",
    "distance": 66.73123803183475
  },
  {
    "id": 64208,
    "lat": 59.46685,
    "lon": 24.822714,
    "brand_name": "Alexela",
    "brand_id": 214,
    "name": "Pirita jahisadama sadamatankla (Harbour station)",
    "city": "Tallinn",
    "address": "Regati pst 1",
    "distance": 66.98486340743567
  },
  {
    "id": 61807,
    "lat": 59.497986,
    "lon": 24.828531,
    "brand_name": "Olerex",
    "brand_id": 198,
    "name": "Viimsi tankla",
    "city": "Viimsi",
    "address": "Muuli tee 2/Ranna tee 15",
    "distance": 67.1020817464213
  },
  {
    "id": 60947,
    "lat": 59.498699,
    "lon": 24.828894,
    "brand_name": "Circle K",
    "brand_id": 186,
    "name": "Viimsi",
    "city": "Viimsi",
    "address": "Miiduranna küla, Randvere tee 1",
    "distance": 67.09411067634286
  },
  {
    "id": 61051,
    "lat": 59.505249,
    "lon": 24.82934,
    "brand_name": "NESTE",
    "brand_id": 188,
    "name": "Viimsi",
    "city": "Viimsi",
    "address": "Pargi tee 24",
    "distance": 67.18592321955497
  },
  {
    "id": 64222,
    "lat": 59.50573,
    "lon": 24.827063,
    "brand_name": "Alexela",
    "brand_id": 214,
    "name": "Haabneeme tankla",
    "city": "Viimsi vald",
    "address": "Randvere tee 9a",
    "distance": 67.3215104768956
  },
  {
    "id": 64273,
    "lat": 59.531422,
    "lon": 25.160242,
    "brand_name": "Alexela",
    "brand_id": 214,
    "name": "Neeme sadamatankla (Harbour station)",
    "city": "Jõelähtme vald",
    "address": "Neeme sadam",
    "distance": 77.08339782107879
  },
  {
    "id": 64305,
    "lat": 59.550999,
    "lon": 24.866972,
    "brand_name": "Alexela",
    "brand_id": 214,
    "name": "Leppneeme sadamatankla (Harbour station)",
    "city": "Leppneeme",
    "address": "Leppneeme sadam",
    "distance": 66.1548641540942
  },
  {
    "id": 64270,
    "lat": 59.520287,
    "lon": 25.276646,
    "brand_name": "Alexela",
    "brand_id": 214,
    "name": "Kaberneeme sadamatankla (Harbour station)",
    "city": "Jõelähtme vald",
    "address": "Kordoni tee 20",
    "distance": 98.28503741081772
  },
  {
    "id": 64295,
    "lat": 59.580051,
    "lon": 25.72587,
    "brand_name": "Alexela",
    "brand_id": 214,
    "name": "Loksa tankla",
    "city": 74806,
    "address": "Rohuaia tn 1a",
    "distance": 74.66069475464181
  },
  {
    "id": 64268,
    "lat": 59.585255,
    "lon": 25.972307,
    "brand_name": "Alexela",
    "brand_id": 214,
    "name": "Võsu sadamatankla (Harbour station)",
    "city": "Haljala vald",
    "address": "Piiri tn 6",
    "distance": 88.65917607514974
  },
  {
    "id": 64272,
    "lat": 59.569427,
    "lon": 26.302219,
    "brand_name": "Alexela",
    "brand_id": 214,
    "name": "Eisma sadamatankla (Harbour station)",
    "city": "Haljala vald",
    "address": "Eisma sadam",
    "distance": 97.68968381111412
  }
]